$GPRMC,083334.00,A,4236.8453197,N,00533.7050072,W,0.01,19.12,030617,0.0,E,R*06
$GPGGA,083334.00,4236.8453197,N,00533.7050072,W,4,12,0.7,843.224,M,55.741,M,1.0,0028*58
$GPGSV,5,1,18,10,26,295,32,12,63,214,48,13,26,136,48,15,60,164,51*78
$GPGSV,5,2,18,17,25,53,52,18,29,267,48,19,32,78,49,20,7,197,33*4B
$GPGSV,5,3,18,24,74,342,48,25,21,224,47,32,7,315,,33,40,194,44*40
$GPGSV,5,4,18,36,29,131,,37,34,142,,38,40,195,,39,7,104,*42
$GPGSV,5,5,18,40,13,110,,49,40,164,*7C
$GLGSV,2,1,8,66,47,209,52,67,50,299,51,68,7,336,,75,12,60,37*5F
$GLGSV,2,2,8,76,55,26,50,77,45,282,45,85,20,43,41,86,21,99,52*62
$GPGSA,A,3,12,13,15,17,18,19,24,25,,,,,1.3,0.7,1.1*34
$GLGSA,A,3,66,67,76,77,,,,,,,,,1.3,0.7,1.1*2B
$PNVGBLS,083334.00,-0.401,1.564,-0.038,1.615,104.38,-1.35,R*0E
$PNVGBSS,2404,0,2404,7860.054,1.0*68
$PNVGIMU,083334.00,-10.81,-164.79,14.67,0.002,-0.000,0.036*48
$PNVGVER,NVS,RTA,0028,CSM24,P312*5F
$GPRMC,083334.20,A,4236.8453197,N,00533.7050077,W,0.01,19.12,030617,0.0,E,R*01
$GPGGA,083334.20,4236.8453197,N,00533.7050077,W,4,12,0.7,843.227,M,55.741,M,0.2,0028*5F
$GPGSV,5,1,18,10,26,295,32,12,63,214,48,13,26,136,48,15,60,164,51*78
$GPGSV,5,2,18,17,25,53,52,18,29,267,48,19,32,78,49,20,7,197,33*4B
$GPGSV,5,3,18,24,74,342,48,25,21,224,47,32,7,315,,33,40,194,44*40
$GPGSV,5,4,18,36,29,131,,37,34,142,,38,40,195,,39,7,104,*42
$GPGSV,5,5,18,40,13,110,,49,40,164,*7C
$GLGSV,2,1,8,66,47,209,52,67,50,299,51,68,7,336,,75,12,60,37*5F
$GLGSV,2,2,8,76,55,26,50,77,45,282,45,85,20,43,41,86,21,99,52*62
$GPGSA,A,3,12,13,15,17,18,19,24,25,,,,,1.3,0.7,1.1*34
$GLGSA,A,3,66,67,76,77,,,,,,,,,1.3,0.7,1.1*2B
$PNVGBLS,083334.20,-0.401,1.564,-0.038,1.615,104.38,-1.33,R*0A
$PNVGBSS,2406,0,2406,7860.053,0.2*6C
$PNVGIMU,083334.20,-10.80,-164.78,14.66,0.007,0.003,0.078*6A
$GPRMC,083334.40,A,4236.8453199,N,00533.7050072,W,0.01,19.12,030617,0.0,E,R*0C
$GPGGA,083334.40,4236.8453199,N,00533.7050072,W,4,12,0.7,843.229,M,55.741,M,0.4,0028*5A
$GPGSV,5,1,18,10,26,295,32,12,63,214,48,13,26,136,48,15,60,164,51*78
$GPGSV,5,2,18,17,25,53,52,18,29,267,48,19,32,78,49,20,7,197,33*4B
$GPGSV,5,3,18,24,74,342,48,25,21,224,47,32,7,315,,33,40,194,44*40
$GPGSV,5,4,18,36,29,131,,37,34,142,,38,40,195,,39,7,104,*42
$GPGSV,5,5,18,40,13,110,,49,40,164,*7C
$GLGSV,2,1,8,66,47,209,52,67,50,299,51,68,7,336,,75,12,60,37*5F
$GLGSV,2,2,8,76,55,26,49,77,45,282,45,85,20,43,41,86,21,99,52*6A
$GPGSA,A,3,12,13,15,17,18,19,24,25,,,,,1.3,0.7,1.1*34
$GLGSA,A,3,66,67,76,77,,,,,,,,,1.3,0.7,1.1*2B
$PNVGBLS,083334.40,-0.400,1.563,-0.040,1.613,104.35,-1.44,R*0E
$PNVGBSS,2406,0,2406,7860.054,0.4*6D
$PNVGIMU,083334.40,-10.80,-164.78,14.66,-0.011,-0.014,0.035*64
$GPRMC,083334.60,A,4236.8453200,N,00533.7050070,W,0.00,19.12,030617,0.0,E,R*0E
$GPGGA,083334.60,4236.8453200,N,00533.7050070,W,4,12,0.7,843.229,M,55.741,M,0.6,0028*5B
$GPGSV,5,1,18,10,26,295,32,12,63,214,48,13,26,136,48,15,60,164,51*78
$GPGSV,5,2,18,17,25,53,52,18,29,267,48,19,32,78,49,20,7,197,33*4B
$GPGSV,5,3,18,24,74,342,48,25,21,224,47,32,7,315,,33,40,194,44*40
$GPGSV,5,4,18,36,29,131,,37,34,142,,38,40,195,,39,7,104,*42
$GPGSV,5,5,18,40,13,110,,49,40,164,*7C
$GLGSV,2,1,8,66,47,209,52,67,50,299,51,68,7,336,,75,12,60,37*5F
$GLGSV,2,2,8,76,55,26,50,77,45,282,45,85,20,43,41,86,21,99,52*62
$GPGSA,A,3,12,13,15,17,18,19,24,25,,,,,1.3,0.7,1.1*34
$GLGSA,A,3,66,67,76,77,,,,,,,,,1.3,0.7,1.1*2B
$PNVGBLS,083334.60,-0.400,1.563,-0.041,1.614,104.34,-1.47,R*08
$PNVGBSS,2406,0,2406,7860.054,0.6*6F
$PNVGIMU,083334.60,-10.81,-164.78,14.65,0.011,0.016,0.025*67
$GPRMC,083334.80,A,4236.8453212,N,00533.7050075,W,0.03,19.12,030617,0.0,E,R*05
$GPGGA,083334.80,4236.8453212,N,00533.7050075,W,4,12,0.7,843.229,M,55.741,M,0.8,0028*5D
$GPGSV,5,1,18,10,26,295,32,12,63,214,48,13,26,136,48,15,60,164,51*78
$GPGSV,5,2,18,17,25,53,52,18,29,267,48,19,32,78,49,20,7,197,33*4B
$GPGSV,5,3,18,24,74,342,48,25,21,224,47,32,7,315,,33,40,194,44*40
$GPGSV,5,4,18,36,29,131,,37,34,142,,38,40,195,,39,7,104,*42
$GPGSV,5,5,18,40,13,110,,49,40,164,*7C
$GLGSV,2,1,8,66,47,209,52,67,50,299,51,68,7,336,,75,12,60,37*5F
$GLGSV,2,2,8,76,55,26,50,77,45,282,45,85,20,43,41,86,21,99,52*62
$GPGSA,A,3,12,13,15,17,18,19,24,25,,,,,1.3,0.7,1.1*34
$GLGSA,A,3,66,67,76,77,,,,,,,,,1.3,0.7,1.1*2B
$PNVGBLS,083334.80,-0.401,1.563,-0.041,1.614,104.38,-1.44,R*08
$PNVGBSS,2406,0,2406,7860.054,0.8*61
$PNVGIMU,083334.80,-10.82,-164.78,14.67,0.001,-0.011,0.083*4F
$GPRMC,083335.00,A,4236.8453213,N,00533.7050077,W,0.00,19.12,030617,0.0,E,R*0C
$GPGGA,083335.00,4236.8453213,N,00533.7050077,W,4,12,0.7,843.230,M,55.741,M,1.0,0028*56
$GPGSV,5,1,18,10,26,295,32,12,63,214,49,13,26,136,47,15,60,164,51*76
$GPGSV,5,2,18,17,25,53,52,18,29,267,48,19,32,78,50,20,7,197,34*44
$GPGSV,5,3,18,24,74,342,48,25,21,224,47,32,7,315,,33,40,194,44*40
$GPGSV,5,4,18,36,29,131,,37,34,142,,38,40,195,,39,7,104,*42
$GPGSV,5,5,18,40,13,110,,49,40,164,*7C
$GLGSV,2,1,8,66,47,209,52,67,50,299,51,68,7,336,,75,12,60,37*5F
$GLGSV,2,2,8,76,55,26,50,77,45,282,45,85,20,43,42,86,21,99,53*60
$GPGSA,A,3,12,13,15,17,18,19,24,25,,,,,1.3,0.7,1.1*34
$GLGSA,A,3,66,67,76,77,,,,,,,,,1.3,0.7,1.1*2B
$PNVGBLS,083335.00,-0.400,1.563,-0.039,1.614,104.36,-1.38,R*0A
$PNVGBSS,2406,0,2406,7860.054,1.0*68
$PNVGIMU,083335.00,-10.82,-164.77,14.66,0.008,0.018,0.045*6F
$GPRMC,083335.20,A,4236.8453194,N,00533.7050086,W,0.06,19.12,030617,0.0,E,R*0A
$GPGGA,083335.20,4236.8453194,N,00533.7050086,W,4,12,0.7,843.226,M,55.741,M,0.2,0028*52
$GPGSV,5,1,18,10,26,295,32,12,63,214,48,13,26,136,47,15,60,164,51*77
$GPGSV,5,2,18,17,25,53,52,18,29,267,48,19,32,78,50,20,7,197,34*44
$GPGSV,5,3,18,24,74,342,48,25,21,224,47,32,7,315,,33,40,194,44*40
$GPGSV,5,4,18,36,29,131,,37,34,142,,38,40,195,,39,7,104,*42
$GPGSV,5,5,18,40,13,110,,49,40,164,*7C
$GLGSV,2,1,8,66,47,209,52,67,50,299,51,68,7,336,,75,12,60,37*5F
$GLGSV,2,2,8,76,55,26,50,77,45,282,45,85,20,43,42,86,21,99,53*60
$GPGSA,A,3,12,13,15,17,18,19,24,25,,,,,1.3,0.7,1.1*34
$GLGSA,A,3,66,67,76,77,,,,,,,,,1.3,0.7,1.1*2B
$PNVGBLS,083335.20,-0.400,1.564,-0.039,1.614,104.33,-1.37,R*05
$PNVGBSS,2408,0,2408,7860.052,0.2*6D
$PNVGIMU,083335.20,-10.81,-164.78,14.67,-0.020,-0.003,0.043*66
$GPRMC,083335.40,A,4236.8453195,N,00533.7050079,W,0.03,19.12,030617,0.0,E,R*08
$GPGGA,083335.40,4236.8453195,N,00533.7050079,W,4,12,0.7,843.225,M,55.741,M,0.4,0028*50
$GPGSV,5,1,18,10,26,295,32,12,63,214,48,13,26,136,47,15,60,164,51*77
$GPGSV,5,2,18,17,25,53,52,18,29,267,48,19,32,78,50,20,7,197,34*44
$GPGSV,5,3,18,24,74,342,48,25,21,224,47,32,7,315,,33,40,194,44*40
$GPGSV,5,4,18,36,29,131,,37,34,142,,38,40,195,,39,7,104,*42
$GPGSV,5,5,18,40,13,110,,49,40,164,*7C
$GLGSV,2,1,8,66,47,209,52,67,50,299,51,68,7,336,,75,12,60,37*5F
$GLGSV,2,2,8,76,55,26,50,77,45,282,45,85,20,43,42,86,21,99,53*60
$GPGSA,A,3,12,13,15,17,18,19,24,25,,,,,1.3,0.7,1.1*34
$GLGSA,A,3,66,67,76,77,,,,,,,,,1.3,0.7,1.1*2B
$PNVGBLS,083335.40,-0.400,1.563,-0.038,1.614,104.35,-1.36,R*02
$PNVGBSS,2408,0,2408,7860.053,0.4*6A
$PNVGIMU,083335.40,-10.81,-164.81,14.67,0.014,-0.012,0.086*45
$GPRMC,083335.60,A,4236.8453198,N,00533.7050081,W,0.01,19.12,030617,0.0,E,R*02
$GPGGA,083335.60,4236.8453198,N,00533.7050081,W,4,12,0.7,843.226,M,55.741,M,0.6,0028*59
$GPGSV,5,1,18,10,26,295,32,12,63,214,48,13,26,136,47,15,60,164,51*77
$GPGSV,5,2,18,17,25,53,52,18,29,267,48,19,32,78,50,20,7,197,34*44
$GPGSV,5,3,18,24,74,342,48,25,21,224,47,32,7,315,23,33,40,194,44*41
$GPGSV,5,4,18,36,29,131,,37,34,142,,38,40,195,,39,7,104,*42
$GPGSV,5,5,18,40,13,110,,49,40,164,*7C
$GLGSV,2,1,8,66,47,209,52,67,50,299,51,68,7,336,,75,12,60,37*5F
$GLGSV,2,2,8,76,55,26,50,77,45,282,45,85,20,43,42,86,21,99,53*60
$GPGSA,A,3,12,13,15,17,18,19,24,25,,,,,1.3,0.7,1.1*34
$GLGSA,A,3,66,67,76,77,,,,,,,,,1.3,0.7,1.1*2B
$PNVGBLS,083335.60,-0.400,1.564,-0.039,1.614,104.35,-1.37,R*07
$PNVGBSS,2408,0,2408,7860.053,0.6*68
$PNVGIMU,083335.60,-10.80,-164.78,14.65,0.006,0.031,0.034*64
$GPRMC,083335.80,A,4236.8453200,N,00533.7050082,W,0.00,19.12,030617,0.0,E,R*0C
$GPGGA,083335.80,4236.8453200,N,00533.7050082,W,4,12,0.7,843.226,M,55.741,M,0.8,0028*58
$GPGSV,5,1,18,10,26,295,32,12,63,214,48,13,26,136,47,15,60,164,51*77
$GPGSV,5,2,18,17,25,53,52,18,29,267,48,19,32,78,50,20,7,197,34*44
$GPGSV,5,3,18,24,74,342,48,25,21,224,47,32,7,315,23,33,40,194,44*41
$GPGSV,5,4,18,36,29,131,,37,34,142,,38,40,195,,39,7,104,*42
$GPGSV,5,5,18,40,13,110,,49,40,164,*7C
$GLGSV,2,1,8,66,47,209,52,67,50,299,51,68,7,336,,75,12,60,37*5F
$GLGSV,2,2,8,76,55,26,50,77,45,282,45,85,20,43,42,86,21,99,53*60
$GPGSA,A,3,12,13,15,17,18,19,24,25,,,,,1.3,0.7,1.1*34
$GLGSA,A,3,66,67,76,77,,,,,,,,,1.3,0.7,1.1*2B
$PNVGBLS,083335.80,-0.400,1.563,-0.038,1.614,104.34,-1.34,R*0D
$PNVGBSS,2408,0,2408,7860.053,0.8*66
$PNVGIMU,083335.80,-10.80,-164.78,14.65,0.005,-0.004,0.021*46
$GPRMC,083336.00,A,4236.8453204,N,00533.7050081,W,0.01,19.12,030617,0.0,E,R*01
$GPGGA,083336.00,4236.8453204,N,00533.7050081,W,4,12,0.7,843.225,M,55.741,M,1.0,0028*5E
$GPGSV,5,1,18,10,26,295,32,12,63,214,48,13,26,136,48,15,60,164,51*78
$GPGSV,5,2,18,17,25,53,52,18,29,267,47,19,32,78,49,20,7,197,34*43
$GPGSV,5,3,18,24,74,342,48,25,21,224,47,32,7,315,24,33,40,194,44*46
$GPGSV,5,4,18,36,29,131,,37,34,142,,38,40,195,,39,7,104,*42
$GPGSV,5,5,18,40,13,110,,49,40,164,*7C
$GLGSV,2,1,8,66,47,209,52,67,50,299,51,68,7,336,,75,12,60,37*5F
$GLGSV,2,2,8,76,55,26,50,77,45,282,44,85,20,43,43,86,21,99,53*60
$GPGSA,A,3,12,13,15,17,18,19,24,25,,,,,1.3,0.7,1.1*34
$GLGSA,A,3,66,67,76,77,,,,,,,,,1.3,0.7,1.1*2B
$PNVGBLS,083336.00,-0.400,1.563,-0.037,1.614,104.35,-1.31,R*0D
$PNVGBSS,2408,0,2408,7860.053,1.0*6F
$PNVGIMU,083336.00,-10.82,-164.78,14.66,-0.007,-0.009,0.074*6E
$GPRMC,083336.20,A,4236.8453212,N,00533.7050070,W,0.03,19.12,030617,0.0,E,R*08
$GPGGA,083336.20,4236.8453212,N,00533.7050070,W,4,12,0.7,843.222,M,55.741,M,0.2,0028*51
$GPGSV,5,1,18,10,26,295,32,12,63,214,48,13,26,136,48,15,60,164,51*78
$GPGSV,5,2,18,17,25,53,52,18,29,267,47,19,32,78,49,20,7,197,34*43
$GPGSV,5,3,18,24,74,342,48,25,21,224,47,32,7,315,,33,40,194,44*40
$GPGSV,5,4,18,36,29,131,,37,34,142,,38,40,195,,39,7,104,*42
$GPGSV,5,5,18,40,13,110,,49,40,164,*7C
$GLGSV,2,1,8,66,47,209,52,67,50,299,51,68,7,336,,75,12,60,37*5F
$GLGSV,2,2,8,76,55,26,50,77,45,282,44,85,20,43,43,86,21,99,53*60
$GPGSA,A,3,12,13,15,17,18,19,24,25,,,,,1.3,0.7,1.1*34
$GLGSA,A,3,66,67,76,77,,,,,,,,,1.3,0.7,1.1*2B
$PNVGBLS,083336.20,-0.400,1.564,-0.037,1.614,104.34,-1.30,R*08
$PNVGBSS,2410,0,2410,7860.055,0.2*6A
$PNVGIMU,083336.20,-10.69,-164.99,14.68,-0.276,-0.053,0.034*67
$GPRMC,083336.40,A,4236.8453328,N,00533.7050017,W,0.31,19.12,030617,0.0,E,R*06
$GPGGA,083336.40,4236.8453328,N,00533.7050017,W,4,12,0.7,843.218,M,55.741,M,0.4,0028*51
$GPGSV,5,1,18,10,26,295,32,12,63,214,48,13,26,136,48,15,60,164,51*78
$GPGSV,5,2,18,17,25,53,52,18,29,267,47,19,32,78,49,20,7,197,34*43
$GPGSV,5,3,18,24,74,342,48,25,21,224,47,32,7,315,,33,40,194,44*40
$GPGSV,5,4,18,36,29,131,,37,34,142,,38,40,195,,39,7,104,*42
$GPGSV,5,5,18,40,13,110,,49,40,164,*7C
$GLGSV,2,1,8,66,47,209,52,67,50,299,51,68,7,336,,75,12,60,37*5F
$GLGSV,2,2,8,76,55,26,50,77,45,282,44,85,20,43,43,86,21,99,53*60
$GPGSA,A,3,12,13,15,17,18,19,24,25,,,,,1.3,0.7,1.1*34
$GLGSA,A,3,66,67,76,77,,,,,,,,,1.3,0.7,1.1*2B
$PNVGBLS,083336.40,-0.400,1.565,-0.034,1.616,104.33,-1.22,R*0A
$PNVGBSS,2410,0,2410,7860.070,0.4*6B
$PNVGIMU,083336.40,-10.35,-165.65,14.79,-0.788,-0.185,-0.034*49
$GPRMC,083336.60,A,4236.8453675,N,00533.7049835,W,0.90,19.12,030617,0.0,E,R*02
$GPGGA,083336.60,4236.8453675,N,00533.7049835,W,4,12,0.7,843.225,M,55.741,M,0.6,0028*52
$GPGSV,5,1,18,10,26,295,32,12,63,214,48,13,26,136,48,15,60,164,51*78
$GPGSV,5,2,18,17,25,53,52,18,29,267,47,19,32,78,50,20,7,197,34*4B
$GPGSV,5,3,18,24,74,342,48,25,21,224,47,32,7,315,,33,40,194,44*40
$GPGSV,5,4,18,36,29,131,,37,34,142,,38,40,195,,39,7,104,*42
$GPGSV,5,5,18,40,13,110,,49,40,164,*7C
$GLGSV,2,1,8,66,47,209,52,67,50,299,51,68,7,336,,75,12,60,37*5F
$GLGSV,2,2,8,76,55,26,50,77,45,282,44,85,20,43,43,86,21,99,53*60
$GPGSA,A,3,12,13,15,17,18,19,24,25,,,,,1.3,0.7,1.1*34
$GLGSA,A,3,66,67,76,77,,,,,,,,,1.3,0.7,1.1*2B
$PNVGBLS,083336.60,-0.398,1.565,-0.042,1.615,104.28,-1.48,R*0A
$PNVGBSS,2410,0,2410,7860.116,0.6*68
$PNVGIMU,083336.60,-9.82,-166.50,15.06,-0.944,-0.150,0.068*51
$GPRMC,083336.80,A,4236.8454239,N,00533.7049520,W,1.32,19.12,030617,0.0,E,R*07
$GPGGA,083336.80,4236.8454239,N,00533.7049520,W,4,12,0.7,843.221,M,55.741,M,0.8,0028*54
$GPGSV,5,1,18,10,26,295,32,12,63,214,48,13,26,136,48,15,60,164,51*78
$GPGSV,5,2,18,17,25,53,52,18,29,267,47,19,32,78,50,20,7,197,34*4B
$GPGSV,5,3,18,24,74,342,48,25,21,224,47,32,7,315,,33,40,194,44*40
$GPGSV,5,4,18,36,29,131,,37,34,142,,38,40,195,,39,7,104,*42
$GPGSV,5,5,18,40,13,110,,49,40,164,*7C
$GLGSV,2,1,8,66,47,209,52,67,50,299,51,68,7,336,,75,12,60,37*5F
$GLGSV,2,2,8,76,55,26,50,77,45,282,44,85,20,43,43,86,21,99,53*60
$GPGSA,A,3,12,13,15,17,18,19,24,25,,,,,1.3,0.7,1.1*34
$GLGSA,A,3,66,67,76,77,,,,,,,,,1.3,0.7,1.1*2B
$PNVGBLS,083336.80,-0.403,1.565,-0.045,1.616,104.46,-1.59,R*0D
$PNVGBSS,2410,0,2410,7860.194,0.8*6C
$PNVGIMU,083336.80,-9.18,-167.32,15.43,-0.857,0.079,0.000*72
$GPRMC,083337.00,A,4236.8455039,N,00533.7048983,W,1.86,27.46,030617,0.0,E,R*0A
$GPGGA,083337.00,4236.8455039,N,00533.7048983,W,4,12,0.7,843.216,M,55.741,M,1.0,0028*57
$GPGSV,5,1,18,10,26,295,29,12,63,214,49,13,26,136,47,15,60,164,51*7C
$GPGSV,5,2,18,17,25,53,52,18,29,267,47,19,32,78,50,20,7,197,39*46
$GPGSV,5,3,18,24,74,342,49,25,21,224,46,32,7,315,,33,40,194,44*40
$GPGSV,5,4,18,36,29,131,,37,34,142,,38,40,195,,39,7,104,*42
$GPGSV,5,5,18,40,13,110,,49,40,164,*7C
$GLGSV,2,1,8,66,47,209,52,67,50,299,51,68,7,336,,75,12,60,37*5F
$GLGSV,2,2,8,76,55,26,50,77,45,282,44,85,20,43,44,86,21,99,54*60
$GPGSA,A,3,12,13,15,17,18,19,24,25,,,,,1.3,0.7,1.1*34
$GLGSA,A,3,66,67,76,77,,,,,,,,,1.3,0.7,1.1*2B
$PNVGBLS,083337.00,-0.418,1.559,-0.031,1.614,105.02,-1.10,R*0C
$PNVGBSS,2410,0,2410,7860.316,1.0*6D
$PNVGIMU,083337.00,-8.47,-167.98,15.72,-0.773,0.338,-0.052*57
$GPRMC,083337.20,A,4236.8456099,N,00533.7048176,W,2.48,30.36,030617,0.0,E,R*03
$GPGGA,083337.20,4236.8456099,N,00533.7048176,W,4,12,0.8,843.211,M,55.741,M,1.2,0028*54
$GPGSV,5,1,18,10,26,295,29,12,63,214,49,13,26,136,47,15,60,164,51*7C
$GPGSV,5,2,18,17,25,53,52,18,29,267,47,19,32,78,50,20,7,197,39*46
$GPGSV,5,3,18,24,74,342,49,25,21,224,46,32,7,315,,33,40,194,44*40
$GPGSV,5,4,18,36,29,131,,37,34,142,,38,40,195,,39,7,104,*42
$GPGSV,5,5,18,40,13,110,,49,40,164,*7C
$GLGSV,2,1,8,66,47,209,52,67,50,299,51,68,7,336,,75,12,60,37*5F
$GLGSV,2,2,8,76,55,26,50,77,45,282,44,85,20,43,44,86,21,99,54*60
$GPGSA,A,3,12,13,15,17,18,19,24,25,,,,,1.5,0.8,1.3*3F
$GLGSA,A,3,66,67,76,77,,,,,,,,,1.5,0.8,1.3*20
$PNVGBLS,083337.20,-0.450,1.545,-0.020,1.609,106.23,-0.73,R*07
$PNVGBSS,2411,0,2411,7860.490,1.2*66
$PNVGIMU,083337.20,-6.67,-170.66,11.71,-0.696,0.810,-0.018*5C
$GPRMC,083337.40,A,4236.8457372,N,00533.7047050,W,3.02,34.42,030617,0.0,E,R*00
$GPGGA,083337.40,4236.8457372,N,00533.7047050,W,4,12,0.8,843.207,M,55.741,M,0.4,0028*5F
$GPGSV,5,1,18,10,26,295,29,12,63,214,49,13,26,136,47,15,60,164,51*7C
$GPGSV,5,2,18,17,25,53,52,18,29,267,47,19,32,78,50,20,7,197,39*46
$GPGSV,5,3,18,24,74,342,49,25,21,224,46,32,7,315,,33,40,194,44*40
$GPGSV,5,4,18,36,29,131,,37,34,142,,38,40,195,,39,7,104,*42
$GPGSV,5,5,18,40,13,110,,49,40,164,*7C
$GLGSV,2,1,8,66,47,209,52,67,50,299,51,68,7,336,,75,12,60,37*5F
$GLGSV,2,2,8,76,55,26,50,77,45,282,44,85,20,43,44,86,21,99,54*60
$GPGSA,A,3,12,13,15,17,18,19,24,25,,,,,1.5,0.8,1.3*3F
$GLGSA,A,3,66,67,76,77,,,,,,,,,1.5,0.8,1.3*20
$PNVGBLS,083337.40,-0.497,1.532,-0.001,1.611,107.96,-0.03,R*08
$PNVGBSS,2414,0,2414,7860.719,0.4*63
$PNVGIMU,083337.40,-5.89,-172.68,8.64,-0.146,1.303,0.028*45
$GPRMC,083337.60,A,4236.8458836,N,00533.7045573,W,3.56,37.98,030617,0.0,E,R*05
$GPGGA,083337.60,4236.8458836,N,00533.7045573,W,4,12,0.8,843.225,M,55.741,M,0.6,0028*5D
$GPGSV,5,1,18,10,26,295,29,12,63,214,49,13,26,136,47,15,60,164,51*7C
$GPGSV,5,2,18,17,25,53,52,18,29,267,47,19,32,78,50,20,7,197,40*48
$GPGSV,5,3,18,24,74,342,49,25,21,224,46,32,7,315,,33,40,194,44*40
$GPGSV,5,4,18,36,29,131,,37,34,142,,38,40,195,,39,7,104,*42
$GPGSV,5,5,18,40,13,110,,49,40,164,*7C
$GLGSV,2,1,8,66,47,209,52,67,50,299,51,68,7,336,,75,12,60,37*5F
$GLGSV,2,2,8,76,55,26,50,77,45,282,44,85,20,43,44,86,21,99,54*60
$GPGSA,A,3,12,13,15,17,18,19,24,25,,,,,1.5,0.8,1.3*3F
$GLGSA,A,3,66,67,76,77,,,,,,,,,1.5,0.8,1.3*20
$PNVGBLS,083337.60,-0.559,1.517,-0.030,1.617,110.24,-1.06,R*01
$PNVGBSS,2414,0,2414,7861.006,0.6*69
$PNVGIMU,083337.60,-5.99,-174.94,6.55,0.335,1.556,-0.036*40
$GPRMC,083337.80,A,4236.8460457,N,00533.7043548,W,4.33,44.92,030617,0.0,E,R*0F
$GPGGA,083337.80,4236.8460457,N,00533.7043548,W,4,12,0.8,843.224,M,55.740,M,0.8,0028*53
$GPGSV,5,1,18,10,26,295,29,12,63,214,49,13,26,136,47,15,60,164,51*7C
$GPGSV,5,2,18,17,25,53,52,18,29,267,47,19,32,78,50,20,7,197,40*48
$GPGSV,5,3,18,24,74,342,49,25,21,224,46,32,7,315,,33,40,194,44*40
$GPGSV,5,4,18,36,29,131,,37,34,142,,38,40,195,,39,7,104,*42
$GPGSV,5,5,18,40,13,110,,49,40,164,*7C
$GLGSV,2,1,8,66,47,209,52,67,50,299,51,68,7,336,,75,12,60,37*5F
$GLGSV,2,2,8,76,55,26,50,77,45,282,44,85,20,43,44,86,21,99,54*60
$GPGSA,A,3,12,13,15,17,18,19,24,25,,,,,1.6,0.8,1.4*3B
$GLGSA,A,3,66,67,76,77,,,,,,,,,1.6,0.8,1.4*24
$PNVGBLS,083337.80,-0.644,1.476,-0.031,1.611,113.57,-1.12,R*03
$PNVGBSS,2414,0,2414,7861.373,0.8*66
$PNVGIMU,083337.80,-6.13,-175.70,8.36,1.105,2.236,0.353*60
$GPRMC,083338.00,A,4236.8462088,N,00533.7041142,W,4.54,49.42,030617,0.0,E,R*01
$GPGGA,083338.00,4236.8462088,N,00533.7041142,W,4,11,0.9,843.222,M,55.740,M,1.0,0028*51
$GPGSV,5,1,18,10,26,295,29,12,63,214,49,13,26,136,47,15,60,164,51*7C
$GPGSV,5,2,18,17,25,53,49,18,29,267,42,19,32,78,48,20,7,197,40*4E
$GPGSV,5,3,18,24,74,342,49,25,21,224,45,32,7,315,,33,40,194,44*43
$GPGSV,5,4,18,36,29,131,,37,34,142,,38,40,195,,39,7,104,*42
$GPGSV,5,5,18,40,13,110,,49,40,164,*7C
$GLGSV,2,1,8,66,47,209,52,67,50,299,51,68,7,336,,75,12,60,31*59
$GLGSV,2,2,8,76,55,26,50,77,45,282,44,85,20,43,42,86,21,99,50*62
$GPGSA,A,3,12,13,15,17,19,24,25,,,,,,1.8,0.9,1.6*3F
$GLGSA,A,3,66,67,76,77,,,,,,,,,1.8,0.9,1.6*29
$PNVGBLS,083338.00,-0.750,1.427,-0.019,1.613,117.73,-0.68,R*02
$PNVGBSS,2414,0,2414,7861.789,1.0*6E
$PNVGIMU,083338.00,-6.61,-175.68,13.00,1.533,2.328,0.287*53
$GPRMC,083338.20,A,4236.8463618,N,00533.7038307,W,4.83,56.58,030617,0.0,E,R*0F
$GPGGA,083338.20,4236.8463618,N,00533.7038307,W,4,10,1.0,843.215,M,55.740,M,1.2,0028*5F
$GPGSV,5,1,18,10,26,295,29,12,63,214,49,13,26,136,47,15,60,164,51*7C
$GPGSV,5,2,18,17,25,53,49,18,29,267,42,19,32,78,48,20,7,197,40*4E
$GPGSV,5,3,18,24,74,342,49,25,21,224,45,32,7,315,,33,40,194,44*43
$GPGSV,5,4,18,36,29,131,,37,34,142,,38,40,195,,39,7,104,*42
$GPGSV,5,5,18,40,13,110,,49,40,164,*7C
$GLGSV,2,1,8,66,47,209,52,67,50,299,51,68,7,336,,75,12,60,31*59
$GLGSV,2,2,8,76,55,26,50,77,45,282,44,85,20,43,42,86,21,99,50*62
$GPGSA,A,3,12,13,15,19,24,25,,,,,,,2.0,1.0,1.7*3B
$GLGSA,A,3,66,67,76,77,,,,,,,,,2.0,1.0,1.7*2B
$PNVGBLS,083338.20,-0.868,1.362,-0.002,1.615,122.50,-0.08,R*0F
$PNVGBSS,2415,0,2415,7862.253,1.2*6D
$PNVGIMU,083338.20,-7.33,-175.27,20.03,1.245,2.832,0.307*50
$GPRMC,083338.40,A,4236.8465083,N,00533.7035075,W,5.24,60.59,030617,0.0,E,R*08
$GPGGA,083338.40,4236.8465083,N,00533.7035075,W,4,10,0.9,843.218,M,55.740,M,0.4,0028*52
$GPGSV,5,1,18,10,26,295,29,12,63,214,49,13,26,136,47,15,60,164,51*7C
$GPGSV,5,2,18,17,25,53,49,18,29,267,42,19,32,78,48,20,7,197,40*4E
$GPGSV,5,3,18,24,74,342,49,25,21,224,45,32,7,315,,33,40,194,44*43
$GPGSV,5,4,18,36,29,131,,37,34,142,,38,40,195,,39,7,104,*42
$GPGSV,5,5,18,40,13,110,,49,40,164,*7C
$GLGSV,2,1,8,66,47,209,52,67,50,299,51,68,7,336,,75,12,60,31*59
$GLGSV,2,2,8,76,55,26,50,77,45,282,44,85,20,43,42,86,21,99,50*62
$GPGSA,A,3,12,13,15,19,24,25,,,,,,,1.8,0.9,1.6*39
$GLGSA,A,3,66,67,76,77,,,,,,,,,1.8,0.9,1.6*29
$PNVGBLS,083338.40,-0.987,1.283,0.012,1.619,127.56,0.42,R*07
$PNVGBSS,2418,0,2418,7862.763,0.4*6C
$PNVGIMU,083338.40,-8.82,-175.17,26.82,1.155,2.700,0.384*58
$GPRMC,083338.60,A,4236.8466331,N,00533.7031479,W,5.43,67.64,030617,0.0,E,R*07
$GPGGA,083338.60,4236.8466331,N,00533.7031479,W,4,10,1.0,843.215,M,55.740,M,0.6,0028*52
$GPGSV,5,1,18,10,26,295,29,12,63,214,49,13,26,136,47,15,60,164,51*7C
$GPGSV,5,2,18,17,25,53,49,18,29,267,42,19,32,78,49,20,7,197,40*4F
$GPGSV,5,3,18,24,74,342,49,25,21,224,45,32,7,315,,33,40,194,45*42
$GPGSV,5,4,18,36,29,131,,37,34,142,,38,40,195,,39,7,104,*42
$GPGSV,5,5,18,40,13,110,,49,40,164,*7C
$GLGSV,2,1,8,66,47,209,52,67,50,299,51,68,7,336,,75,12,60,31*59
$GLGSV,2,2,8,76,55,26,50,77,45,282,44,85,20,43,42,86,21,99,50*62
$GPGSA,A,3,12,13,15,19,24,25,,,,,,,2.0,1.0,1.7*3B
$GLGSA,A,3,66,67,76,77,,,,,,,,,2.0,1.0,1.7*2B
$PNVGBLS,083338.60,-1.105,1.180,0.005,1.616,133.13,0.18,R*04
$PNVGBSS,2418,0,2418,7863.306,0.6*68
$PNVGIMU,083338.60,-10.51,-174.28,34.69,0.635,3.226,0.539*66
$GPRMC,083338.80,A,4236.8467341,N,00533.7027602,W,5.58,73.41,030617,0.0,E,R*0E
$GPGGA,083338.80,4236.8467341,N,00533.7027602,W,4,10,1.0,843.206,M,55.740,M,0.8,0028*5F
$GPGSV,5,1,18,10,26,295,29,12,63,214,50,13,26,136,47,15,60,164,51*74
$GPGSV,5,2,18,17,25,53,49,18,29,267,42,19,32,78,49,20,7,197,40*4F
$GPGSV,5,3,18,24,74,342,49,25,21,224,45,32,7,315,,33,40,194,45*42
$GPGSV,5,4,18,36,29,131,,37,34,142,,38,40,195,,39,7,104,*42
$GPGSV,5,5,18,40,13,110,,49,40,164,*7C
$GLGSV,2,1,8,66,47,209,52,67,50,299,51,68,7,336,,75,12,60,31*59
$GLGSV,2,2,8,76,55,26,50,77,45,282,44,85,20,43,42,86,21,99,50*62
$GPGSA,A,3,12,13,15,19,24,25,,,,,,,2.0,1.0,1.7*3B
$GLGSA,A,3,66,67,76,77,,,,,,,,,2.0,1.0,1.7*2B
$PNVGBLS,083338.80,-1.227,1.065,-0.005,1.625,139.05,-0.19,R*0F
$PNVGBSS,2418,0,2418,7863.868,0.8*65
$PNVGIMU,083338.80,-12.86,-173.94,41.62,-0.268,3.108,0.453*4A
$GPRMC,083339.00,A,4236.8468068,N,00533.7023377,W,5.93,79.64,030617,0.0,E,R*09
$GPGGA,083339.00,4236.8468068,N,00533.7023377,W,4,10,1.0,843.211,M,55.740,M,1.0,0028*5D
$GPGSV,5,1,18,10,26,295,28,12,63,214,51,13,26,136,48,15,60,164,52*78
$GPGSV,5,2,18,17,25,53,46,18,29,267,39,19,32,78,48,20,7,197,39*43
$GPGSV,5,3,18,24,74,342,49,25,21,224,45,32,7,315,,33,40,194,44*43
$GPGSV,5,4,18,36,29,131,,37,34,142,,38,40,195,,39,7,104,*42
$GPGSV,5,5,18,40,13,110,,49,40,164,*7C
$GLGSV,2,1,8,66,47,209,53,67,50,299,50,68,7,336,,75,12,60,32*5A
$GLGSV,2,2,8,76,55,26,49,77,45,282,45,85,20,43,38,86,21,99,47*60
$GPGSA,A,3,12,13,15,19,24,25,,,,,,,2.0,1.0,1.7*3B
$GLGSA,A,3,66,67,76,77,,,,,,,,,2.0,1.0,1.7*2B
$PNVGBLS,083339.00,-1.326,0.921,-0.020,1.615,145.21,-0.72,R*0A
$PNVGBSS,2418,0,2418,7864.455,1.0*69
$PNVGIMU,083339.00,-15.12,-173.55,46.16,-0.822,2.807,0.405*40
$GPRMC,083339.20,A,4236.8468614,N,00533.7019072,W,5.87,82.30,030617,0.0,E,R*09
$GPGGA,083339.20,4236.8468614,N,00533.7019072,W,4,10,1.0,843.203,M,55.740,M,0.2,0028*5D
$GPGSV,5,1,18,10,26,295,28,12,63,214,51,13,26,136,48,15,60,164,52*78
$GPGSV,5,2,18,17,25,53,46,18,29,267,39,19,32,78,48,20,7,197,39*43
$GPGSV,5,3,18,24,74,342,49,25,21,224,45,32,7,315,,33,40,194,44*43
$GPGSV,5,4,18,36,29,131,,37,34,142,,38,40,195,,39,7,104,*42
$GPGSV,5,5,18,40,13,110,,49,40,164,*7C
$GLGSV,2,1,8,66,47,209,53,67,50,299,50,68,7,336,,75,12,60,32*5A
$GLGSV,2,2,8,76,55,26,49,77,45,282,45,85,20,43,38,86,21,99,47*60
$GPGSA,A,3,12,13,15,19,24,25,,,,,,,2.0,1.0,1.7*3B
$GLGSA,A,3,66,67,76,77,,,,,,,,,2.0,1.0,1.7*2B
$PNVGBLS,083339.20,-1.423,0.787,0.006,1.626,151.06,0.22,R*09
$PNVGBSS,2420,0,2420,7865.040,0.2*6B
$PNVGIMU,083339.20,-16.98,-173.54,49.77,-1.577,2.845,0.563*41
$GPRMC,083339.40,A,4236.8468766,N,00533.7014603,W,6.02,90.49,030617,0.0,E,R*05
$GPGGA,083339.40,4236.8468766,N,00533.7014603,W,4,10,1.0,843.190,M,55.740,M,0.4,0028*5D
$GPGSV,5,1,18,10,26,295,28,12,63,214,51,13,26,136,48,15,60,164,52*78
$GPGSV,5,2,18,17,25,53,46,18,29,267,39,19,32,78,48,20,7,197,39*43
$GPGSV,5,3,18,24,74,342,49,25,21,224,45,32,7,315,,33,40,194,44*43
$GPGSV,5,4,18,36,29,131,,37,34,142,,38,40,195,,39,7,104,*42
$GPGSV,5,5,18,40,13,110,,49,40,164,*7C
$GLGSV,2,1,8,66,47,209,53,67,50,299,50,68,7,336,,75,12,60,32*5A
$GLGSV,2,2,8,76,55,26,49,77,45,282,45,85,20,43,38,86,21,99,47*60
$GPGSA,A,3,12,13,15,19,24,25,,,,,,,2.1,1.0,1.8*35
$GLGSA,A,3,66,67,76,77,,,,,,,,,2.1,1.0,1.8*25
$PNVGBLS,083339.40,-1.488,0.632,0.017,1.616,156.98,0.59,R*0E
$PNVGBSS,2420,0,2420,7865.620,0.4*6D
$PNVGIMU,083339.40,-18.73,-173.09,53.35,-2.379,3.194,0.537*47
$GPRMC,083339.60,A,4236.8468529,N,00533.7010059,W,6.14,97.32,030617,0.0,E,R*0F
$GPGGA,083339.60,4236.8468529,N,00533.7010059,W,4,10,1.0,843.182,M,55.740,M,0.6,0028*5A
$GPGSV,5,1,18,10,26,295,28,12,63,214,51,13,26,136,48,15,60,164,52*78
$GPGSV,5,2,18,17,25,53,46,18,29,267,39,19,32,78,48,20,7,197,39*43
$GPGSV,5,3,18,24,74,342,49,25,21,224,45,32,7,315,,33,40,194,44*43
$GPGSV,5,4,18,36,29,131,,37,34,142,,38,40,195,,39,7,104,*42
$GPGSV,5,5,18,40,13,110,,49,40,164,*7C
$GLGSV,2,1,8,66,47,209,53,67,50,299,50,68,7,336,,75,12,60,32*5A
$GLGSV,2,2,8,76,55,26,49,77,45,282,45,85,20,43,38,86,21,99,47*60
$GPGSA,A,3,12,13,15,19,24,25,,,,,,,2.1,1.0,1.8*35
$GLGSA,A,3,66,67,76,77,,,,,,,,,2.1,1.0,1.8*25
$PNVGBLS,083339.60,-1.549,0.472,0.009,1.619,163.04,0.33,R*09
$PNVGBSS,2420,0,2420,7866.183,0.6*62
$PNVGIMU,083339.60,-20.96,-172.96,57.91,-2.844,2.787,0.866*41
$GPRMC,083339.80,A,4236.8467920,N,00533.7005504,W,6.23,103.35,030617,0.0,E,R*3D
$GPGGA,083339.80,4236.8467920,N,00533.7005504,W,4,10,1.0,843.174,M,55.740,M,0.8,0028*50
$GPGSV,5,1,18,10,26,295,28,12,63,214,51,13,26,136,48,15,60,164,52*78
$GPGSV,5,2,18,17,25,53,46,18,29,267,39,19,32,78,48,20,7,197,39*43
$GPGSV,5,3,18,24,74,342,49,25,21,224,45,32,7,315,,33,40,194,44*43
$GPGSV,5,4,18,36,29,131,,37,34,142,,38,40,195,,39,7,104,*42
$GPGSV,5,5,18,40,13,110,,49,40,164,*7C
$GLGSV,2,1,8,66,47,209,53,67,50,299,50,68,7,336,,75,12,60,32*5A
$GLGSV,2,2,8,76,55,26,49,77,45,282,45,85,20,43,38,86,21,99,47*60
$GPGSA,A,3,12,13,15,19,24,25,,,,,,,2.1,1.0,1.8*35
$GLGSA,A,3,66,67,76,77,,,,,,,,,2.1,1.0,1.8*25
$PNVGBLS,083339.80,-1.589,0.298,-0.001,1.617,169.36,-0.05,R*01
$PNVGBSS,2420,0,2420,7866.723,0.8*60
$PNVGIMU,083339.80,-22.55,-172.74,61.64,-3.273,2.153,0.736*4B
$GPRMC,083340.00,A,4236.8466981,N,00533.7000981,W,6.32,108.39,030617,0.0,E,R*32
$GPGGA,083340.00,4236.8466981,N,00533.7000981,W,4,10,1.0,843.162,M,55.740,M,1.0,0028*56
$GPGSV,5,1,18,10,26,295,32,12,63,214,51,13,26,136,47,15,60,164,52*7C
$GPGSV,5,2,18,17,25,53,38,18,29,267,42,19,32,78,47,20,7,197,37*47
$GPGSV,5,3,18,24,74,342,48,25,21,224,45,32,7,315,,33,40,194,44*42
$GPGSV,5,4,18,36,29,131,,37,34,142,,38,40,195,,39,7,104,*42
$GPGSV,5,5,18,40,13,110,,49,40,164,*7C
$GLGSV,2,1,8,66,47,209,53,67,50,299,50,68,7,336,,75,12,60,32*5A
$GLGSV,2,2,8,76,55,26,49,77,45,282,45,85,20,43,41,86,21,99,41*68
$GPGSA,A,3,12,13,15,19,24,25,,,,,,,2.1,1.0,1.8*35
$GLGSA,A,3,66,67,76,77,,,,,,,,,2.1,1.0,1.8*25
$PNVGBLS,083340.00,-1.614,0.123,0.008,1.618,175.64,0.29,R*01
$PNVGBSS,2420,0,2420,7867.237,1.0*68
$PNVGIMU,083340.00,-23.47,-172.42,65.21,-3.651,1.737,0.795*45
$GPRMC,083340.20,A,4236.8465727,N,00533.6996524,W,6.41,113.37,030617,0.0,E,R*35
$GPGGA,083340.20,4236.8465727,N,00533.6996524,W,4,10,1.0,843.156,M,55.740,M,0.2,0028*55
$GPGSV,5,1,18,10,26,295,32,12,63,214,51,13,26,136,47,15,60,164,52*7C
$GPGSV,5,2,18,17,25,53,38,18,29,267,42,19,32,78,47,20,7,197,37*47
$GPGSV,5,3,18,24,74,342,48,25,21,224,45,32,7,315,,33,40,194,44*42
$GPGSV,5,4,18,36,29,131,,37,34,142,,38,40,195,,39,7,104,*42
$GPGSV,5,5,18,40,13,110,,49,40,164,*7C
$GLGSV,2,1,8,66,47,209,53,67,50,299,50,68,7,336,,75,12,60,32*5A
$GLGSV,2,2,8,76,55,26,49,77,45,282,45,85,20,43,41,86,21,99,41*68
$GPGSA,A,3,12,13,15,19,24,25,,,,,,,2.1,1.0,1.8*35
$GLGSA,A,3,66,67,76,77,,,,,,,,,2.1,1.0,1.8*25
$PNVGBLS,083340.20,-1.617,-0.049,0.028,1.618,181.75,0.99,R*22
$PNVGBSS,2422,0,2422,7867.721,0.2*69
$PNVGIMU,083340.20,-23.88,-171.92,69.64,-4.044,1.280,0.731*45
$GPRMC,083340.40,A,4236.8464123,N,00533.6992222,W,6.46,119.63,030617,0.0,E,R*39
$GPGGA,083340.40,4236.8464123,N,00533.6992222,W,4,10,1.0,843.159,M,55.740,M,0.4,0028*5C
$GPGSV,5,1,18,10,26,295,32,12,63,214,51,13,26,136,47,15,60,164,52*7C
$GPGSV,5,2,18,17,25,53,38,18,29,267,42,19,32,78,47,20,7,197,37*47
$GPGSV,5,3,18,24,74,342,48,25,21,224,45,32,7,315,,33,40,194,44*42
$GPGSV,5,4,18,36,29,131,,37,34,142,,38,40,195,,39,7,104,*42
$GPGSV,5,5,18,40,13,110,,49,40,164,*7C
$GLGSV,2,1,8,66,47,209,53,67,50,299,50,68,7,336,,75,12,60,32*5A
$GLGSV,2,2,8,76,55,26,49,77,45,282,45,85,20,43,41,86,21,99,41*68
$GPGSA,A,3,12,13,15,19,24,25,,,,,,,2.1,1.0,1.8*35
$GLGSA,A,3,66,67,76,77,,,,,,,,,2.1,1.0,1.8*25
$PNVGBLS,083340.40,-1.601,-0.223,0.017,1.617,187.94,0.59,R*2B
$PNVGBSS,2422,0,2422,7868.161,0.4*62
$PNVGIMU,083340.40,-24.26,-171.64,74.82,-4.400,0.729,1.075*48
$GPRMC,083340.60,A,4236.8462132,N,00533.6988116,W,6.63,126.45,030617,0.0,E,R*3D
$GPGGA,083340.60,4236.8462132,N,00533.6988116,W,4,10,1.0,843.154,M,55.740,M,0.6,0028*58
$GPGSV,5,1,18,10,26,295,32,12,63,214,51,13,26,136,47,15,60,164,52*7C
$GPGSV,5,2,18,17,25,53,38,18,29,267,42,19,32,78,47,20,7,197,37*47
$GPGSV,5,3,18,24,74,342,48,25,21,224,45,32,7,315,,33,40,194,44*42
$GPGSV,5,4,18,36,29,131,,37,34,142,,38,40,195,,39,7,104,*42
$GPGSV,5,5,18,40,13,110,,49,40,164,*7C
$GLGSV,2,1,8,66,47,209,53,67,50,299,50,68,7,336,,75,12,60,32*5A
$GLGSV,2,2,8,76,55,26,49,77,45,282,45,85,20,43,41,86,21,99,41*68
$GPGSA,A,3,12,13,15,19,24,25,,,,,,,2.1,1.0,1.8*35
$GLGSA,A,3,66,67,76,77,,,,,,,,,2.1,1.0,1.8*25
$PNVGBLS,083340.60,-1.570,-0.380,0.013,1.616,193.62,0.46,R*23
$PNVGBSS,2422,0,2422,7868.551,0.6*67
$PNVGIMU,083340.60,-24.57,-171.61,80.13,-3.886,-0.054,0.707*6C
$GPRMC,083340.80,A,4236.8459920,N,00533.6984124,W,6.71,128.77,030617,0.0,E,R*31
$GPGGA,083340.80,4236.8459920,N,00533.6984124,W,4,10,1.0,843.143,M,55.740,M,0.8,0028*50
$GPGSV,5,1,18,10,26,295,32,12,63,214,51,13,26,136,47,15,60,164,52*7C
$GPGSV,5,2,18,17,25,53,38,18,29,267,42,19,32,78,47,20,7,197,37*47
$GPGSV,5,3,18,24,74,342,48,25,21,224,45,32,7,315,,33,40,194,44*42
$GPGSV,5,4,18,36,29,131,,37,34,142,,38,40,195,,39,7,104,*42
$GPGSV,5,5,18,40,13,110,,49,40,164,*7C
$GLGSV,2,1,8,66,47,209,53,67,50,299,50,68,7,336,,75,12,60,32*5A
$GLGSV,2,2,8,76,55,26,49,77,45,282,45,85,20,43,41,86,21,99,41*68
$GPGSA,A,3,12,13,15,19,24,25,,,,,,,2.1,1.0,1.8*35
$GLGSA,A,3,66,67,76,77,,,,,,,,,2.1,1.0,1.8*25
$PNVGBLS,083340.80,-1.525,-0.534,0.015,1.616,199.28,0.55,R*24
$PNVGBSS,2422,0,2422,7868.912,0.8*62
$PNVGIMU,083340.80,-24.32,-171.80,85.62,-3.758,-0.699,0.824*68
$GPRMC,083341.00,A,4236.8457430,N,00533.6980290,W,6.87,133.33,030617,0.0,E,R*31
$GPGGA,083341.00,4236.8457430,N,00533.6980290,W,4,10,1.0,843.130,M,55.740,M,1.0,0028*5E
$GPGSV,5,1,18,10,26,295,42,12,63,214,51,13,26,136,46,15,60,164,51*79
$GPGSV,5,2,18,17,25,53,33,18,29,267,48,19,32,78,45,20,7,197,36*45
$GPGSV,5,3,18,24,74,342,49,25,21,224,45,32,7,315,,33,40,194,44*43
$GPGSV,5,4,18,36,29,131,,37,34,142,,38,40,195,,39,7,104,*42
$GPGSV,5,5,18,40,13,110,,49,40,164,*7C
$GLGSV,2,1,8,66,47,209,53,67,50,299,52,68,7,336,,75,12,60,32*58
$GLGSV,2,2,8,76,55,26,49,77,45,282,47,85,20,43,36,86,21,99,36*6A
$GPGSA,A,3,12,13,15,19,24,25,,,,,,,2.1,1.0,1.8*35
$GLGSA,A,3,66,67,76,77,,,,,,,,,2.1,1.0,1.8*25
$PNVGBLS,083341.00,-1.469,-0.665,0.012,1.613,204.36,0.42,R*2F
$PNVGBSS,2422,0,2422,7869.234,1.0*65
$PNVGIMU,083341.00,-23.62,-171.86,91.07,-3.629,-1.176,0.856*66
$GPRMC,083341.20,A,4236.8454685,N,00533.6976541,W,7.13,136.42,030617,0.0,E,R*31
$GPGGA,083341.20,4236.8454685,N,00533.6976541,W,4,10,1.0,843.126,M,55.740,M,0.2,0028*55
$GPGSV,5,1,18,10,26,295,42,12,63,214,51,13,26,136,46,15,60,164,51*79
$GPGSV,5,2,18,17,25,53,33,18,29,267,48,19,32,78,45,20,7,197,36*45
$GPGSV,5,3,18,24,74,342,49,25,21,224,45,32,7,315,,33,40,194,44*43
$GPGSV,5,4,18,36,29,131,,37,34,142,,38,40,195,,39,7,104,*42
$GPGSV,5,5,18,40,13,110,,49,40,164,*7C
$GLGSV,2,1,8,66,47,209,53,67,50,299,52,68,7,336,,75,12,60,32*58
$GLGSV,2,2,8,76,55,26,49,77,45,282,47,85,20,43,36,86,21,99,36*6A
$GPGSA,A,3,12,13,15,19,24,25,,,,,,,2.1,1.0,1.8*35
$GLGSA,A,3,66,67,76,77,,,,,,,,,2.1,1.0,1.8*25
$PNVGBLS,083341.20,-1.405,-0.787,0.003,1.610,209.25,0.11,R*20
$PNVGBSS,2424,0,2424,7869.527,0.2*63
$PNVGIMU,083341.20,-22.76,-171.83,96.26,-3.290,-1.513,0.448*63
$GPRMC,083341.40,A,4236.8451747,N,00533.6972985,W,7.16,139.86,030617,0.0,E,R*3F
$GPGGA,083341.40,4236.8451747,N,00533.6972985,W,4,10,1.0,843.130,M,55.740,M,0.4,0028*58
$GPGSV,5,1,18,10,26,295,42,12,63,214,51,13,26,136,46,15,60,164,51*79
$GPGSV,5,2,18,17,25,53,33,18,29,267,48,19,32,78,45,20,7,197,36*45
$GPGSV,5,3,18,24,74,342,49,25,21,224,45,32,7,315,,33,40,194,44*43
$GPGSV,5,4,18,36,29,131,,37,34,142,,38,40,195,,39,7,104,*42
$GPGSV,5,5,18,40,13,110,,49,40,164,*7C
$GLGSV,2,1,8,66,47,209,53,67,50,299,52,68,7,336,,75,12,60,32*58
$GLGSV,2,2,8,76,55,26,49,77,45,282,47,85,20,43,36,86,21,99,36*6A
$GPGSA,A,3,12,13,15,19,24,25,,,,,,,2.1,1.0,1.8*35
$GLGSA,A,3,66,67,76,77,,,,,,,,,2.1,1.0,1.8*25
$PNVGBLS,083341.40,-1.346,-0.887,-0.009,1.612,213.37,-0.30,R*2A
$PNVGBSS,2424,0,2424,7869.784,0.4*6E
$PNVGIMU,083341.40,-21.36,-171.95,100.93,-2.538,-1.737,0.423*58
$GPRMC,083341.60,A,4236.8448684,N,00533.6969411,W,7.37,139.84,030617,0.0,E,R*30
$GPGGA,083341.60,4236.8448684,N,00533.6969411,W,4,10,1.0,843.126,M,55.740,M,0.6,0028*53
$GPGSV,5,1,18,10,26,295,42,12,63,214,51,13,26,136,46,15,60,164,51*79
$GPGSV,5,2,18,17,25,53,33,18,29,267,48,19,32,78,45,20,7,197,36*45
$GPGSV,5,3,18,24,74,342,49,25,21,224,45,32,7,315,,33,40,194,44*43
$GPGSV,5,4,18,36,29,131,,37,34,142,,38,40,195,,39,7,104,*42
$GPGSV,5,5,18,40,13,110,,49,40,164,*7C
$GLGSV,2,1,8,66,47,209,53,67,50,299,52,68,7,336,,75,12,60,32*58
$GLGSV,2,2,8,76,55,26,49,77,45,282,47,85,20,43,36,86,21,99,36*6A
$GPGSA,A,3,12,13,15,19,24,25,,,,,,,2.1,1.0,1.8*35
$GLGSA,A,3,66,67,76,77,,,,,,,,,2.1,1.0,1.8*25
$PNVGBLS,083341.60,-1.289,-0.971,-0.005,1.614,216.97,-0.17,R*22
$PNVGBSS,2424,0,2424,7870.034,0.6*68
$PNVGIMU,083341.60,-19.32,-171.90,105.66,-2.178,-1.841,0.653*54
$GPRMC,083341.80,A,4236.8445392,N,00533.6965968,W,7.61,143.64,030617,0.0,E,R*3E
$GPGGA,083341.80,4236.8445392,N,00533.6965968,W,4,10,1.0,843.105,M,55.740,M,0.8,0028*52
$GPGSV,5,1,18,10,26,295,42,12,63,214,51,13,26,136,46,15,60,164,51*79
$GPGSV,5,2,18,17,25,53,33,18,29,267,48,19,32,78,45,20,7,197,36*45
$GPGSV,5,3,18,24,74,342,49,25,21,224,45,32,7,315,,33,40,194,44*43
$GPGSV,5,4,18,36,29,131,,37,34,142,,38,40,195,,39,7,104,*42
$GPGSV,5,5,18,40,13,110,,49,40,164,*7C
$GLGSV,2,1,8,66,47,209,53,67,50,299,52,68,7,336,,75,12,60,32*58
$GLGSV,2,2,8,76,55,26,49,77,45,282,47,85,20,43,36,86,21,99,36*6A
$GPGSA,A,3,12,13,15,19,24,25,,,,,,,2.1,1.0,1.8*35
$GLGSA,A,3,66,67,76,77,,,,,,,,,2.1,1.0,1.8*25
$PNVGBLS,083341.80,-1.232,-1.036,0.013,1.609,220.07,0.47,R*25
$PNVGBSS,2424,0,2424,7870.252,0.8*64
$PNVGIMU,083341.80,-16.98,-171.41,110.11,-2.187,-1.907,0.288*5C
$GPRMC,083342.00,A,4236.8441917,N,00533.6962591,W,7.79,145.39,030617,0.0,E,R*3C
$GPGGA,083342.00,4236.8441917,N,00533.6962591,W,4,10,1.0,843.102,M,55.740,M,1.0,0028*59
$GPGSV,5,1,18,10,26,295,48,12,63,214,51,13,26,136,45,15,60,164,51*70
$GPGSV,5,2,18,17,25,53,31,18,29,267,48,19,32,78,41,20,7,197,35*40
$GPGSV,5,3,18,24,74,342,49,25,21,224,46,32,7,315,,33,40,194,44*40
$GPGSV,5,4,18,36,29,131,,37,34,142,,38,40,195,,39,7,104,*42
$GPGSV,5,5,18,40,13,110,,49,40,164,*7C
$GLGSV,2,1,8,66,47,209,53,67,50,299,53,68,7,336,,75,12,60,32*59
$GLGSV,2,2,8,76,55,26,49,77,45,282,47,85,20,43,29,86,21,99,34*66
$GPGSA,A,3,12,13,15,19,24,25,,,,,,,2.1,1.0,1.8*35
$GLGSA,A,3,66,67,76,77,,,,,,,,,2.1,1.0,1.8*25
$PNVGBLS,083342.00,-1.183,-1.089,0.014,1.608,222.63,0.49,R*2B
$PNVGBSS,2424,0,2424,7870.450,1.0*69
$PNVGIMU,083342.00,-15.61,-171.59,113.73,-1.463,-1.283,0.259*5B
$GPRMC,083342.20,A,4236.8438310,N,00533.6959266,W,7.93,146.43,030617,0.0,E,R*30
$GPGGA,083342.20,4236.8438310,N,00533.6959266,W,4,10,1.0,843.118,M,55.740,M,1.2,0028*56
$GPGSV,5,1,18,10,26,295,48,12,63,214,51,13,26,136,45,15,60,164,51*70
$GPGSV,5,2,18,17,25,53,31,18,29,267,48,19,32,78,41,20,7,197,35*40
$GPGSV,5,3,18,24,74,342,50,25,21,224,46,32,7,315,,33,40,194,45*49
$GPGSV,5,4,18,36,29,131,,37,34,142,,38,40,195,,39,7,104,*42
$GPGSV,5,5,18,40,13,110,,49,40,164,*7C
$GLGSV,2,1,8,66,47,209,53,67,50,299,53,68,7,336,,75,12,60,32*59
$GLGSV,2,2,8,76,55,26,49,77,45,282,47,85,20,43,29,86,21,99,34*66
$GPGSA,A,3,12,13,15,19,24,25,,,,,,,2.1,1.0,1.8*35
$GLGSA,A,3,66,67,76,77,,,,,,,,,2.1,1.0,1.8*25
$PNVGBLS,083342.20,-1.129,-1.148,-0.020,1.610,225.47,-0.71,R*21
$PNVGBSS,2425,0,2425,7870.633,1.2*6C
$PNVGIMU,083342.20,-13.78,-171.15,117.20,-1.778,-1.561,0.067*50
$GPRMC,083342.40,A,4236.8434459,N,00533.6956032,W,8.31,149.28,030617,0.0,E,R*39
$GPGGA,083342.40,4236.8434459,N,00533.6956032,W,4,10,1.0,843.133,M,55.740,M,0.4,0028*54
$GPGSV,5,1,18,10,26,295,48,12,63,214,51,13,26,136,45,15,60,164,51*70
$GPGSV,5,2,18,17,25,53,31,18,29,267,48,19,32,78,41,20,7,197,35*40
$GPGSV,5,3,18,24,74,342,49,25,21,224,46,32,7,315,,33,40,194,45*41
$GPGSV,5,4,18,36,29,131,,37,34,142,,38,40,195,,39,7,104,*42
$GPGSV,5,5,18,40,13,110,,49,40,164,*7C
$GLGSV,2,1,8,66,47,209,53,67,50,299,53,68,7,336,,75,12,60,32*59
$GLGSV,2,2,8,76,55,26,49,77,45,282,47,85,20,43,29,86,21,99,34*66
$GPGSA,A,3,12,13,15,19,24,25,,,,,,,2.1,1.0,1.8*35
$GLGSA,A,3,66,67,76,77,,,,,,,,,2.1,1.0,1.8*25
$PNVGBLS,083342.40,-1.084,-1.188,-0.050,1.609,227.61,-1.78,R*2C
$PNVGBSS,2428,0,2428,7870.787,0.4*65
$PNVGIMU,083342.40,-12.87,-171.51,120.31,-0.637,-1.029,0.164*53
$GPRMC,083342.60,A,4236.8430582,N,00533.6952600,W,8.45,146.33,030617,0.0,E,R*3D
$GPGGA,083342.60,4236.8430582,N,00533.6952600,W,4,10,1.0,843.135,M,55.740,M,0.6,0028*52
$GPGSV,5,1,18,10,26,295,48,12,63,214,51,13,26,136,45,15,60,164,51*70
$GPGSV,5,2,18,17,25,53,31,18,29,267,48,19,32,78,41,20,7,197,35*40
$GPGSV,5,3,18,24,74,342,49,25,21,224,46,32,7,315,,33,40,194,44*40
$GPGSV,5,4,18,36,29,131,,37,34,142,,38,40,195,,39,7,104,*42
$GPGSV,5,5,18,40,13,110,,49,40,164,*7C
$GLGSV,2,1,8,66,47,209,53,67,50,299,53,68,7,336,,75,12,60,32*59
$GLGSV,2,2,8,76,55,26,49,77,45,282,47,85,20,43,29,86,21,99,34*66
$GPGSA,A,3,12,13,15,19,24,25,,,,,,,2.1,1.0,1.8*35
$GLGSA,A,3,66,67,76,77,,,,,,,,,2.1,1.0,1.8*25
$PNVGBLS,083342.60,-1.050,-1.213,-0.029,1.605,229.12,-1.04,R*25
$PNVGBSS,2428,0,2428,7870.965,0.6*65
$PNVGIMU,083342.60,-11.31,-171.40,123.48,-0.878,-0.568,0.124*52
$GPRMC,083342.80,A,4236.8426621,N,00533.6949382,W,8.33,149.85,030617,0.0,E,R*38
$GPGGA,083342.80,4236.8426621,N,00533.6949382,W,4,10,0.9,843.133,M,55.740,M,0.8,0028*54
$GPGSV,5,1,18,10,26,295,48,12,63,214,51,13,26,136,45,15,60,164,51*70
$GPGSV,5,2,18,17,25,53,31,18,29,267,48,19,32,78,41,20,7,197,35*40
$GPGSV,5,3,18,24,74,342,49,25,21,224,46,32,7,315,,33,40,194,44*40
$GPGSV,5,4,18,36,29,131,,37,34,142,,38,40,195,,39,7,104,*42
$GPGSV,5,5,18,40,13,110,,49,40,164,*7C
$GLGSV,2,1,8,66,47,209,53,67,50,299,53,68,7,336,,75,12,60,32*59
$GLGSV,2,2,8,76,55,26,49,77,45,282,47,85,20,43,29,86,21,99,34*66
$GPGSA,A,3,12,13,15,19,24,25,,,,,,,1.7,0.9,1.5*35
$GLGSA,A,3,66,67,76,77,,,,,,,,,1.7,0.9,1.5*25
$PNVGBLS,083342.80,-1.021,-1.236,-0.017,1.603,230.46,-0.60,R*2B
$PNVGBSS,2428,0,2428,7871.110,0.8*60
$PNVGIMU,083342.80,-10.15,-170.25,126.10,-1.953,-0.629,0.133*58
$GPRMC,083343.00,A,4236.8422635,N,00533.6946312,W,8.22,151.16,030617,0.0,E,R*35
$GPGGA,083343.00,4236.8422635,N,00533.6946312,W,4,10,0.9,843.132,M,55.740,M,1.0,0028*52
$GPGSV,5,1,18,10,26,295,49,12,63,214,51,13,26,136,44,15,60,164,50*71
$GPGSV,5,2,18,17,25,53,30,18,29,267,48,19,32,78,39,20,7,197,35*4E
$GPGSV,5,3,18,24,74,342,50,25,21,224,46,32,7,315,,33,40,194,44*48
$GPGSV,5,4,18,36,29,131,,37,34,142,,38,40,195,,39,7,104,*42
$GPGSV,5,5,18,40,13,110,,49,40,164,*7C
$GLGSV,2,1,8,66,47,209,53,67,50,299,53,68,7,336,,75,12,60,33*58
$GLGSV,2,2,8,76,55,26,49,77,45,282,47,85,20,43,27,86,21,99,36*6A
$GPGSA,A,3,12,13,15,19,24,25,,,,,,,1.7,0.9,1.5*35
$GLGSA,A,3,66,67,76,77,,,,,,,,,1.7,0.9,1.5*25
$PNVGBLS,083343.00,-0.991,-1.263,-0.034,1.605,231.88,-1.22,R*22
$PNVGBSS,2428,0,2428,7871.235,1.0*6D
$PNVGIMU,083343.00,-9.90,-169.32,128.27,-0.876,0.115,0.190*4B
$GPRMC,083343.20,A,4236.8418631,N,00533.6943247,W,8.26,150.66,030617,0.0,E,R*3C
$GPGGA,083343.20,4236.8418631,N,00533.6943247,W,4,10,0.9,843.140,M,55.740,M,0.2,0028*5F
$GPGSV,5,1,18,10,26,295,49,12,63,214,51,13,26,136,44,15,60,164,50*71
$GPGSV,5,2,18,17,25,53,30,18,29,267,48,19,32,78,39,20,7,197,35*4E
$GPGSV,5,3,18,24,74,342,50,25,21,224,46,32,7,315,,33,40,194,44*48
$GPGSV,5,4,18,36,29,131,,37,34,142,,38,40,195,,39,7,104,*42
$GPGSV,5,5,18,40,13,110,,49,40,164,*7C
$GLGSV,2,1,8,66,47,209,53,67,50,299,53,68,7,336,,75,12,60,33*58
$GLGSV,2,2,8,76,55,26,49,77,45,282,47,85,20,43,27,86,21,99,36*6A
$GPGSA,A,3,12,13,15,19,24,25,,,,,,,1.7,0.9,1.5*35
$GLGSA,A,3,66,67,76,77,,,,,,,,,1.7,0.9,1.5*25
$PNVGBLS,083343.20,-0.961,-1.287,-0.047,1.607,233.23,-1.67,R*21
$PNVGBSS,2432,0,2432,7871.358,0.2*64
$PNVGIMU,083343.20,-9.82,-167.78,130.46,-1.151,-0.051,0.069*62
$GPRMC,083343.40,A,4236.8414605,N,00533.6940343,W,8.19,152.61,030617,0.0,E,R*3E
$GPGGA,083343.40,4236.8414605,N,00533.6940343,W,4,10,0.9,843.137,M,55.740,M,0.4,0028*52
$GPGSV,5,1,18,10,26,295,49,12,63,214,51,13,26,136,44,15,60,164,50*71
$GPGSV,5,2,18,17,25,53,30,18,29,267,48,19,32,78,39,20,7,197,35*4E
$GPGSV,5,3,18,24,74,342,50,25,21,224,46,32,7,315,,33,40,194,44*48
$GPGSV,5,4,18,36,29,131,,37,34,142,,38,40,195,,39,7,104,*42
$GPGSV,5,5,18,40,13,110,,49,40,164,*7C
$GLGSV,2,1,8,66,47,209,53,67,50,299,53,68,7,336,,75,12,60,33*58
$GLGSV,2,2,8,76,55,26,49,77,45,282,47,85,20,43,27,86,21,99,37*6B
$GPGSA,A,3,12,13,15,19,24,25,,,,,,,1.7,0.9,1.5*35
$GLGSA,A,3,66,67,76,77,,,,,,,,,1.7,0.9,1.5*25
$PNVGBLS,083343.40,-0.945,-1.300,-0.037,1.607,233.99,-1.31,R*2A
$PNVGBSS,2432,0,2432,7871.459,0.4*64
$PNVGIMU,083343.40,-9.94,-166.54,132.43,-0.626,-0.384,0.161*6F
$GPRMC,083343.60,A,4236.8410545,N,00533.6937551,W,8.19,153.62,030617,0.0,E,R*38
$GPGGA,083343.60,4236.8410545,N,00533.6937551,W,4,10,0.9,843.147,M,55.740,M,0.6,0028*53
$GPGSV,5,1,18,10,26,295,49,12,63,214,51,13,26,136,44,15,60,164,51*70
$GPGSV,5,2,18,17,25,53,30,18,29,267,48,19,32,78,39,20,7,197,35*4E
$GPGSV,5,3,18,24,74,342,50,25,21,224,46,32,7,315,,33,40,194,44*48
$GPGSV,5,4,18,36,29,131,,37,34,142,,38,40,195,,39,7,104,*42
$GPGSV,5,5,18,40,13,110,,49,40,164,*7C
$GLGSV,2,1,8,66,47,209,53,67,50,299,53,68,7,336,,75,12,60,33*58
$GLGSV,2,2,8,76,55,26,49,77,45,282,47,85,20,43,27,86,21,99,37*6B
$GPGSA,A,3,12,13,15,19,24,25,,,,,,,1.7,0.9,1.5*35
$GLGSA,A,3,66,67,76,77,,,,,,,,,1.7,0.9,1.5*25
$PNVGBLS,083343.60,-0.924,-1.307,-0.046,1.602,234.73,-1.65,R*29
$PNVGBSS,2432,0,2432,7871.544,0.6*6B
$PNVGIMU,083343.60,-11.05,-165.45,133.95,-0.566,0.513,-0.129*56
$GPRMC,083343.80,A,4236.8406624,N,00533.6934725,W,7.98,151.32,030617,0.0,E,R*36
$GPGGA,083343.80,4236.8406624,N,00533.6934725,W,4,12,0.9,843.123,M,55.740,M,0.8,0028*52
$GPGSV,5,1,18,10,26,295,49,12,63,214,51,13,26,136,44,15,60,164,51*70
$GPGSV,5,2,18,17,25,53,30,18,29,267,48,19,32,78,39,20,7,197,35*4E
$GPGSV,5,3,18,24,74,342,50,25,21,224,46,32,7,315,,33,40,194,44*48
$GPGSV,5,4,18,36,29,131,,37,34,142,,38,40,195,,39,7,104,*42
$GPGSV,5,5,18,40,13,110,,49,40,164,*7C
$GLGSV,2,1,8,66,47,209,53,67,50,299,53,68,7,336,,75,12,60,33*58
$GLGSV,2,2,8,76,55,26,49,77,45,282,47,85,20,43,27,86,21,99,37*6B
$GPGSA,A,3,10,12,13,15,18,19,24,25,,,,,1.7,0.9,1.5*3D
$GLGSA,A,3,66,67,76,77,,,,,,,,,1.7,0.9,1.5*25
$PNVGBLS,083343.80,-0.920,-1.316,-0.019,1.606,235.06,-0.67,R*2D
$PNVGBSS,2432,0,2432,7871.642,0.8*60
$PNVGIMU,083343.80,-11.06,-165.24,135.94,0.300,-0.440,0.032*7C
$GPRMC,083344.00,A,4236.8402473,N,00533.6931811,W,8.57,152.77,030617,0.0,E,R*3E
$GPGGA,083344.00,4236.8402473,N,00533.6931811,W,4,12,0.9,843.118,M,55.740,M,1.0,0028*55
$GPGSV,5,1,18,10,26,295,49,12,63,214,52,13,26,136,44,15,60,164,51*73
$GPGSV,5,2,18,17,25,53,30,18,29,267,48,19,32,78,37,20,7,197,37*42
$GPGSV,5,3,18,24,74,342,50,25,21,224,45,32,7,315,,33,40,194,44*4B
$GPGSV,5,4,18,36,29,131,,37,34,142,,38,40,195,,39,7,104,*42
$GPGSV,5,5,18,40,13,110,,49,40,164,*7C
$GLGSV,2,1,8,66,47,209,53,67,50,299,53,68,7,336,,75,12,60,37*5C
$GLGSV,2,2,8,76,55,26,49,77,45,282,47,85,20,43,29,86,21,99,35*67
$GPGSA,A,3,10,12,13,15,18,19,24,25,,,,,1.7,0.9,1.5*3D
$GLGSA,A,3,66,67,76,77,,,,,,,,,1.7,0.9,1.5*25
$PNVGBLS,083344.00,-0.898,-1.326,-0.005,1.601,235.88,-0.19,R*26
$PNVGBSS,2432,0,2432,7871.736,1.0*6B
$PNVGIMU,083344.00,-10.58,-164.96,137.85,0.194,-0.722,0.003*79
$GPRMC,083344.20,A,4236.8398215,N,00533.6928968,W,8.64,154.36,030617,0.0,E,R*3A
$GPGGA,083344.20,4236.8398215,N,00533.6928968,W,4,12,0.9,843.127,M,55.740,M,1.2,0028*5C
$GPGSV,5,1,18,10,26,295,49,12,63,214,51,13,26,136,44,15,60,164,51*70
$GPGSV,5,2,18,17,25,53,30,18,29,267,48,19,32,78,37,20,7,197,37*42
$GPGSV,5,3,18,24,74,342,50,25,21,224,45,32,7,315,,33,40,194,44*4B
$GPGSV,5,4,18,36,29,131,,37,34,142,,38,40,195,,39,7,104,*42
$GPGSV,5,5,18,40,13,110,,49,40,164,*7C
$GLGSV,2,1,8,66,47,209,53,67,50,299,53,68,7,336,,75,12,60,37*5C
$GLGSV,2,2,8,76,55,26,49,77,45,282,47,85,20,43,29,86,21,99,35*67
$GPGSA,A,3,10,12,13,15,18,19,24,25,,,,,1.7,0.9,1.5*3D
$GLGSA,A,3,66,67,76,77,,,,,,,,,1.7,0.9,1.5*25
$PNVGBLS,083344.20,-0.902,-1.331,-0.017,1.608,235.87,-0.61,R*2A
$PNVGBSS,2433,0,2433,7871.815,1.2*67
$PNVGIMU,083344.20,-9.84,-165.37,139.39,0.293,-0.494,0.177*49
$GPRMC,083344.40,A,4236.8393784,N,00533.6926003,W,9.06,153.74,030617,0.0,E,R*34
$GPGGA,083344.40,4236.8393784,N,00533.6926003,W,4,12,0.9,843.123,M,55.740,M,0.4,0028*55
$GPGSV,5,1,18,10,26,295,49,12,63,214,51,13,26,136,44,15,60,164,51*70
$GPGSV,5,2,18,17,25,53,30,18,29,267,48,19,32,78,37,20,7,197,37*42
$GPGSV,5,3,18,24,74,342,50,25,21,224,45,32,7,315,,33,40,194,44*4B
$GPGSV,5,4,18,36,29,131,,37,34,142,,38,40,195,,39,7,104,*42
$GPGSV,5,5,18,40,13,110,,49,40,164,*7C
$GLGSV,2,1,8,66,47,209,53,67,50,299,53,68,7,336,,75,12,60,37*5C
$GLGSV,2,2,8,76,55,26,49,77,45,282,47,85,20,43,29,86,21,99,35*67
$GPGSA,A,3,10,12,13,15,18,19,24,25,,,,,1.7,0.9,1.5*3D
$GLGSA,A,3,66,67,76,77,,,,,,,,,1.7,0.9,1.5*25
$PNVGBLS,083344.40,-0.886,-1.336,-0.010,1.604,236.45,-0.36,R*22
$PNVGBSS,2434,0,2434,7871.897,0.4*6A
$PNVGIMU,083344.40,-8.94,-166.33,141.09,0.671,-0.253,-0.089*6C
$GPRMC,083344.60,A,4236.8389250,N,00533.6922965,W,9.22,153.60,030617,0.0,E,R*3F
$GPGGA,083344.60,4236.8389250,N,00533.6922965,W,4,12,0.9,843.125,M,55.740,M,0.6,0028*59
$GPGSV,5,1,18,10,26,295,49,12,63,214,51,13,26,136,44,15,60,164,51*70
$GPGSV,5,2,18,17,25,53,30,18,29,267,48,19,32,78,37,20,7,197,37*42
$GPGSV,5,3,18,24,74,342,50,25,21,224,45,32,7,315,,33,40,194,44*4B
$GPGSV,5,4,18,36,29,131,,37,34,142,,38,40,195,,39,7,104,*42
$GPGSV,5,5,18,40,13,110,,49,40,164,*7C
$GLGSV,2,1,8,66,47,209,53,67,50,299,53,68,7,336,,75,12,60,37*5C
$GLGSV,2,2,8,76,55,26,49,77,45,282,47,85,20,43,29,86,21,99,35*67
$GPGSA,A,3,10,12,13,15,18,19,24,25,,,,,1.7,0.9,1.5*3D
$GLGSA,A,3,66,67,76,77,,,,,,,,,1.7,0.9,1.5*25
$PNVGBLS,083344.60,-0.876,-1.342,-0.013,1.602,236.87,-0.48,R*2E
$PNVGBSS,2434,0,2434,7871.982,0.6*6D
$PNVGIMU,083344.60,-7.49,-167.35,142.88,0.259,-0.216,0.004*4B
$GPRMC,083344.80,A,4236.8384499,N,00533.6919866,W,9.67,154.54,030617,0.0,E,R*34
$GPGGA,083344.80,4236.8384499,N,00533.6919866,W,4,12,0.9,843.125,M,55.740,M,0.8,0028*5D
$GPGSV,5,1,18,10,26,295,49,12,63,214,52,13,26,136,44,15,60,164,51*73
$GPGSV,5,2,18,17,25,53,30,18,29,267,48,19,32,78,37,20,7,197,37*42
$GPGSV,5,3,18,24,74,342,50,25,21,224,45,32,7,315,,33,40,194,44*4B
$GPGSV,5,4,18,36,29,131,,37,34,142,,38,40,195,,39,7,104,*42
$GPGSV,5,5,18,40,13,110,,49,40,164,*7C
$GLGSV,2,1,8,66,47,209,53,67,50,299,53,68,7,336,,75,12,60,37*5C
$GLGSV,2,2,8,76,55,26,49,77,45,282,47,85,20,43,29,86,21,99,35*67
$GPGSA,A,3,10,12,13,15,18,19,24,25,,,,,1.7,0.9,1.5*3D
$GLGSA,A,3,66,67,76,77,,,,,,,,,1.7,0.9,1.5*25
$PNVGBLS,083344.80,-0.862,-1.347,-0.010,1.600,237.37,-0.36,R*22
$PNVGBSS,2434,0,2434,7872.060,0.8*65
$PNVGIMU,083344.80,-6.62,-168.28,144.24,-0.011,-0.175,-0.008*4A
$GPRMC,083345.00,A,4236.8379635,N,00533.6916736,W,9.81,154.76,030617,0.0,E,R*36
$GPGGA,083345.00,4236.8379635,N,00533.6916736,W,4,12,0.9,843.130,M,55.740,M,1.0,0028*5A
$GPGSV,5,1,18,10,26,295,50,12,63,214,51,13,26,136,45,15,60,164,51*79
$GPGSV,5,2,18,17,25,53,29,18,29,267,49,19,32,78,38,20,7,197,30*43
$GPGSV,5,3,18,24,74,342,50,25,21,224,46,32,7,315,,33,40,194,44*48
$GPGSV,5,4,18,36,29,131,,37,34,142,,38,40,195,,39,7,104,*42
$GPGSV,5,5,18,40,13,110,,49,40,164,*7C
$GLGSV,2,1,8,66,47,209,53,67,50,299,53,68,7,336,,75,12,60,35*5E
$GLGSV,2,2,8,76,55,26,49,77,45,282,47,85,20,43,26,86,21,99,33*6E
$GPGSA,A,3,10,12,13,15,18,19,24,25,,,,,1.7,0.9,1.5*3D
$GLGSA,A,3,66,67,76,77,,,,,,,,,1.7,0.9,1.5*25
$PNVGBLS,083345.00,-0.857,-1.353,-0.014,1.602,237.66,-0.49,R*22
$PNVGBSS,2434,0,2434,7872.135,1.0*6D
$PNVGIMU,083345.00,-5.99,-169.21,145.63,-0.194,0.237,0.029*44
$GPRMC,083345.20,A,4236.8374660,N,00533.6913583,W,9.98,155.07,030617,0.0,E,R*3F
$GPGGA,083345.20,4236.8374660,N,00533.6913583,W,4,12,0.9,843.136,M,55.740,M,0.2,0028*59
$GPGSV,5,1,18,10,26,295,50,12,63,214,51,13,26,136,45,15,60,164,51*79
$GPGSV,5,2,18,17,25,53,29,18,29,267,49,19,32,78,38,20,7,197,30*43
$GPGSV,5,3,18,24,74,342,50,25,21,224,46,32,7,315,,33,40,194,44*48
$GPGSV,5,4,18,36,29,131,,37,34,142,,38,40,195,,39,7,104,*42
$GPGSV,5,5,18,40,13,110,,49,40,164,*7C
$GLGSV,2,1,8,66,47,209,53,67,50,299,53,68,7,336,,75,12,60,35*5E
$GLGSV,2,2,8,76,55,26,49,77,45,282,47,85,20,43,26,86,21,99,33*6E
$GPGSA,A,3,10,12,13,15,18,19,24,25,,,,,1.7,0.9,1.5*3D
$GLGSA,A,3,66,67,76,77,,,,,,,,,1.7,0.9,1.5*25
$PNVGBLS,083345.20,-0.848,-1.359,-0.021,1.602,238.03,-0.76,R*22
$PNVGBSS,2436,0,2436,7872.205,0.2*6E
$PNVGIMU,083345.20,-5.37,-169.20,146.82,-0.674,0.052,0.028*46
$GPRMC,083345.40,A,4236.8369531,N,00533.6910478,W,10.22,156.39,030617,0.0,E,R*03
$GPGGA,083345.40,4236.8369531,N,00533.6910478,W,4,12,0.9,843.140,M,55.740,M,0.4,0028*55
$GPGSV,5,1,18,10,26,295,50,12,63,214,51,13,26,136,45,15,60,164,51*79
$GPGSV,5,2,18,17,25,53,29,18,29,267,49,19,32,78,38,20,7,197,30*43
$GPGSV,5,3,18,24,74,342,50,25,21,224,46,32,7,315,,33,40,194,44*48
$GPGSV,5,4,18,36,29,131,,37,34,142,,38,40,195,,39,7,104,*42
$GPGSV,5,5,18,40,13,110,,49,40,164,*7C
$GLGSV,2,1,8,66,47,209,53,67,50,299,53,68,7,336,,75,12,60,35*5E
$GLGSV,2,2,8,76,55,26,49,77,45,282,47,85,20,43,26,86,21,99,33*6E
$GPGSA,A,3,10,12,13,15,18,19,24,25,,,,,1.7,0.9,1.5*3D
$GLGSA,A,3,66,67,76,77,,,,,,,,,1.7,0.9,1.5*25
$PNVGBLS,083345.40,-0.832,-1.369,-0.020,1.602,238.72,-0.70,R*2B
$PNVGBSS,2436,0,2436,7872.259,0.4*61
$PNVGIMU,083345.40,-4.88,-168.86,148.27,-1.166,-0.183,0.177*67
$GPRMC,083345.60,A,4236.8364206,N,00533.6907614,W,10.42,159.51,030617,0.0,E,R*06
$GPGGA,083345.60,4236.8364206,N,00533.6907614,W,4,12,0.9,843.138,M,55.740,M,0.6,0028*5A
$GPGSV,5,1,18,10,26,295,50,12,63,214,51,13,26,136,45,15,60,164,51*79
$GPGSV,5,2,18,17,25,53,29,18,29,267,49,19,32,78,38,20,7,197,30*43
$GPGSV,5,3,18,24,74,342,50,25,21,224,46,32,7,315,,33,40,194,44*48
$GPGSV,5,4,18,36,29,131,,37,34,142,,38,40,195,,39,7,104,*42
$GPGSV,5,5,18,40,13,110,,49,40,164,*7C
$GLGSV,2,1,8,66,47,209,53,67,50,299,53,68,7,336,,75,12,60,35*5E
$GLGSV,2,2,8,76,55,26,49,77,45,282,47,85,20,43,26,86,21,99,33*6E
$GPGSA,A,3,10,12,13,15,18,19,24,25,,,,,1.7,0.9,1.5*3D
$GLGSA,A,3,66,67,76,77,,,,,,,,,1.7,0.9,1.5*25
$PNVGBLS,083345.60,-0.784,-1.392,-0.005,1.597,240.62,-0.19,R*26
$PNVGBSS,2436,0,2436,7872.270,0.6*68
$PNVGIMU,083345.60,-5.18,-167.63,150.21,-1.784,-0.425,0.036*61
$GPRMC,083345.80,A,4236.8358823,N,00533.6905050,W,10.27,161.82,030617,0.0,E,R*08
$GPGGA,083345.80,4236.8358823,N,00533.6905050,W,4,12,0.9,843.124,M,55.740,M,0.8,0028*51
$GPGSV,5,1,18,10,26,295,50,12,63,214,51,13,26,136,45,15,60,164,51*79
$GPGSV,5,2,18,17,25,53,29,18,29,267,49,19,32,78,38,20,7,197,30*43
$GPGSV,5,3,18,24,74,342,50,25,21,224,46,32,7,315,,33,40,194,44*48
$GPGSV,5,4,18,36,29,131,,37,34,142,,38,40,195,,39,7,104,*42
$GPGSV,5,5,18,40,13,110,,49,40,164,*7C
$GLGSV,2,1,8,66,47,209,53,67,50,299,53,68,7,336,,75,12,60,35*5E
$GLGSV,2,2,8,76,55,26,49,77,45,282,47,85,20,43,26,86,21,99,33*6E
$GPGSA,A,3,10,12,13,15,18,19,24,25,,,,,1.7,0.9,1.5*3D
$GLGSA,A,3,66,67,76,77,,,,,,,,,1.7,0.9,1.5*25
$PNVGBLS,083345.80,-0.725,-1.430,0.001,1.603,243.10,0.05,R*2D
$PNVGBSS,2436,0,2436,7872.239,0.8*6B
$PNVGIMU,083345.80,-5.86,-166.24,153.21,-1.987,-0.826,0.043*69
$GPRMC,083346.00,A,4236.8353365,N,00533.6903052,W,10.14,166.98,030617,0.0,E,R*09
$GPGGA,083346.00,4236.8353365,N,00533.6903052,W,4,12,0.9,843.119,M,55.740,M,1.0,0028*5B
$GPGSV,5,1,18,10,26,295,49,12,63,214,52,13,26,136,45,15,60,164,50*73
$GPGSV,5,2,18,17,25,53,29,18,29,267,48,19,32,78,38,20,7,197,32*40
$GPGSV,5,3,18,24,74,342,51,25,21,224,46,32,7,315,,33,40,194,45*48
$GPGSV,5,4,18,36,29,131,,37,34,142,,38,40,195,,39,7,104,*42
$GPGSV,5,5,18,40,13,110,,49,40,164,*7C
$GLGSV,2,1,8,66,47,209,53,67,50,299,53,68,7,336,,75,12,60,31*5A
$GLGSV,2,2,8,76,55,26,48,77,45,282,47,85,20,43,27,86,21,99,36*6B
$GPGSA,A,3,10,12,13,15,18,19,24,25,,,,,1.7,0.9,1.5*3D
$GLGSA,A,3,66,67,76,77,,,,,,,,,1.7,0.9,1.5*25
$PNVGBLS,083346.00,-0.658,-1.466,0.005,1.607,245.82,0.19,R*2E
$PNVGBSS,2436,0,2436,7872.130,1.0*68
$PNVGIMU,083346.00,-6.91,-164.60,156.91,-2.427,-1.472,0.068*6A
$GPRMC,083346.20,A,4236.8347806,N,00533.6901826,W,10.15,173.73,030617,0.0,E,R*09
$GPGGA,083346.20,4236.8347806,N,00533.6901826,W,4,12,0.9,843.108,M,55.740,M,1.2,0028*59
$GPGSV,5,1,18,10,26,295,49,12,63,214,52,13,26,136,45,15,60,164,50*73
$GPGSV,5,2,18,17,25,53,29,18,29,267,48,19,32,78,38,20,7,197,32*40
$GPGSV,5,3,18,24,74,342,51,25,21,224,46,32,7,315,,33,40,194,45*48
$GPGSV,5,4,18,36,29,131,,37,34,142,,38,40,195,,39,7,104,*42
$GPGSV,5,5,18,40,13,110,,49,40,164,*7C
$GLGSV,2,1,8,66,47,209,53,67,50,299,53,68,7,336,,75,12,60,31*5A
$GLGSV,2,2,8,76,55,26,48,77,45,282,47,85,20,43,27,86,21,99,36*6B
$GPGSA,A,3,10,12,13,15,18,19,24,25,,,,,1.7,0.9,1.5*3D
$GLGSA,A,3,66,67,76,77,,,,,,,,,1.7,0.9,1.5*25
$PNVGBLS,083346.20,-0.545,-1.510,0.014,1.605,250.15,0.49,R*2E
$PNVGBSS,2437,0,2437,7871.916,1.2*65
$PNVGIMU,083346.20,-8.81,-163.07,162.64,-2.514,-2.484,0.078*66
$GPRMC,083346.40,A,4236.8342258,N,00533.6901500,W,9.99,180.97,030617,0.0,E,R*38
$GPGGA,083346.40,4236.8342258,N,00533.6901500,W,4,12,0.9,843.097,M,55.740,M,0.4,0028*52
$GPGSV,5,1,18,10,26,295,49,12,63,214,52,13,26,136,45,15,60,164,50*73
$GPGSV,5,2,18,17,25,53,29,18,29,267,48,19,32,78,38,20,7,197,32*40
$GPGSV,5,3,18,24,74,342,51,25,21,224,46,32,7,315,,33,40,194,45*48
$GPGSV,5,4,18,36,29,131,,37,34,142,,38,40,195,,39,7,104,*42
$GPGSV,5,5,18,40,13,110,,49,40,164,*7C
$GLGSV,2,1,8,66,47,209,53,67,50,299,53,68,7,336,,75,12,60,31*5A
$GLGSV,2,2,8,76,55,26,48,77,45,282,47,85,20,43,27,86,21,99,36*6B
$GPGSA,A,3,10,12,13,15,18,19,24,25,,,,,1.7,0.9,1.5*3D
$GLGSA,A,3,66,67,76,77,,,,,,,,,1.7,0.9,1.5*25
$PNVGBLS,083346.40,-0.396,-1.554,0.035,1.604,255.71,1.26,R*2D
$PNVGBSS,2438,0,2438,7871.589,0.4*68
$PNVGIMU,083346.40,-11.97,-162.07,170.25,-2.275,-3.432,0.124*5C
$GPRMC,083346.60,A,4236.8336762,N,00533.6902209,W,9.98,189.43,030617,0.0,E,R*39
$GPGGA,083346.60,4236.8336762,N,00533.6902209,W,4,12,0.9,843.081,M,55.740,M,0.6,0028*57
$GPGSV,5,1,18,10,26,295,49,12,63,214,52,13,26,136,45,15,60,164,50*73
$GPGSV,5,2,18,17,25,53,29,18,29,267,48,19,32,78,38,20,7,197,32*40
$GPGSV,5,3,18,24,74,342,51,25,21,224,46,32,7,315,,33,40,194,45*48
$GPGSV,5,4,18,36,29,131,,37,34,142,,38,40,195,,39,7,104,*42
$GPGSV,5,5,18,40,13,110,,49,40,164,*7C
$GLGSV,2,1,8,66,47,209,53,67,50,299,53,68,7,336,,75,12,60,31*5A
$GLGSV,2,2,8,76,55,26,48,77,45,282,47,85,20,43,27,86,21,99,36*6B
$GPGSA,A,3,10,12,13,15,18,19,24,25,,,,,1.7,0.9,1.5*3D
$GLGSA,A,3,66,67,76,77,,,,,,,,,1.7,0.9,1.5*25
$PNVGBLS,083346.60,-0.209,-1.592,0.042,1.606,262.52,1.51,R*25
$PNVGBSS,2438,0,2438,7871.133,0.6*6F
$PNVGIMU,083346.60,-15.54,-161.52,178.57,-1.552,-3.999,0.019*59
$GPRMC,083346.80,A,4236.8331543,N,00533.6904054,W,9.70,199.29,030617,0.0,E,R*36
$GPGGA,083346.80,4236.8331543,N,00533.6904054,W,4,12,0.9,843.078,M,55.740,M,0.8,0028*5B
$GPGSV,5,1,18,10,26,295,49,12,63,214,52,13,26,136,45,15,60,164,50*73
$GPGSV,5,2,18,17,25,53,29,18,29,267,48,19,32,78,39,20,7,197,32*41
$GPGSV,5,3,18,24,74,342,51,25,21,224,46,32,7,315,,33,40,194,45*48
$GPGSV,5,4,18,36,29,131,,37,34,142,,38,40,195,,39,7,104,*42
$GPGSV,5,5,18,40,13,110,,49,40,164,*7C
$GLGSV,2,1,8,66,47,209,53,67,50,299,53,68,7,336,,75,12,60,31*5A
$GLGSV,2,2,8,76,55,26,48,77,45,282,47,85,20,43,27,86,21,99,36*6B
$GPGSA,A,3,10,12,13,15,18,19,24,25,,,,,1.7,0.9,1.5*3D
$GLGSA,A,3,66,67,76,77,,,,,,,,,1.7,0.9,1.5*25
$PNVGBLS,083346.80,-0.013,-1.605,0.036,1.605,269.55,1.30,R*24
$PNVGBSS,2438,0,2438,7870.550,0.8*61
$PNVGIMU,083346.80,-19.16,-162.30,186.49,-0.528,-4.920,0.478*5E
$GPRMC,083347.00,A,4236.8326671,N,00533.6906893,W,9.55,207.74,030617,0.0,E,R*31
$GPGGA,083347.00,4236.8326671,N,00533.6906893,W,4,12,0.9,843.067,M,55.740,M,1.0,0028*50
$GPGSV,5,1,18,10,26,295,48,12,63,214,51,13,26,136,45,15,60,164,50*71
$GPGSV,5,2,18,17,25,53,30,18,29,267,48,19,32,78,43,20,7,197,31*47
$GPGSV,5,3,18,24,74,342,51,25,21,224,46,32,7,315,,33,40,194,43*4E
$GPGSV,5,4,18,36,29,131,,37,34,142,,38,40,195,,39,7,104,*42
$GPGSV,5,5,18,40,13,110,,49,40,164,*7C
$GLGSV,2,1,8,66,47,209,52,67,50,299,53,68,7,336,,75,12,60,29*52
$GLGSV,2,2,8,76,55,26,49,77,45,282,47,85,20,43,28,86,21,99,47*63
$GPGSA,A,3,10,12,13,15,18,19,24,25,,,,,1.7,0.9,1.5*3D
$GLGSA,A,3,66,67,76,77,,,,,,,,,1.7,0.9,1.5*25
$PNVGBLS,083347.00,0.206,-1.600,0.035,1.614,277.34,1.24,R*0D
$PNVGBSS,2438,0,2438,7869.864,1.0*6A
$PNVGIMU,083347.00,-23.18,-164.05,195.42,0.875,-4.925,0.837*73
$GPRMC,083347.20,A,4236.8322185,N,00533.6910606,W,9.49,215.53,030617,0.0,E,R*35
$GPGGA,083347.20,4236.8322185,N,00533.6910606,W,4,12,0.9,843.052,M,55.740,M,1.2,0028*5B
$GPGSV,5,1,18,10,26,295,48,12,64,214,51,13,26,136,45,15,60,164,50*76
$GPGSV,5,2,18,17,25,53,30,18,29,267,48,19,32,78,43,20,7,197,31*47
$GPGSV,5,3,18,24,74,342,51,25,21,224,46,32,7,315,,33,40,194,43*4E
$GPGSV,5,4,18,36,29,131,,37,34,142,,38,40,195,,39,7,104,*42
$GPGSV,5,5,18,40,13,110,,49,40,164,*7C
$GLGSV,2,1,8,66,47,209,52,67,50,299,53,68,7,336,,75,12,60,29*52
$GLGSV,2,2,8,76,54,26,49,77,45,282,47,85,20,43,28,86,21,99,47*62
$GPGSA,A,3,10,12,13,15,18,19,24,25,,,,,1.7,0.9,1.5*3D
$GLGSA,A,3,66,67,76,77,,,,,,,,,1.7,0.9,1.5*25
$PNVGBLS,083347.20,0.430,-1.553,0.047,1.613,285.48,1.66,R*0B
$PNVGBSS,2439,0,2439,7869.092,1.2*69
$PNVGIMU,083347.20,-26.35,-165.97,203.62,2.248,-5.146,0.976*71
$GPRMC,083347.40,A,4236.8318274,N,00533.6915062,W,9.15,224.44,030617,0.0,E,R*3B
$GPGGA,083347.40,4236.8318274,N,00533.6915062,W,4,12,0.9,843.058,M,55.740,M,0.4,0028*55
$GPGSV,5,1,18,10,26,295,48,12,64,214,51,13,26,136,45,15,60,164,50*76
$GPGSV,5,2,18,17,25,53,30,18,29,267,48,19,32,78,43,20,7,197,31*47
$GPGSV,5,3,18,24,74,342,51,25,21,224,46,32,7,315,,33,40,194,43*4E
$GPGSV,5,4,18,36,29,131,,37,34,142,,38,40,195,,39,7,104,*42
$GPGSV,5,5,18,40,13,110,,49,40,164,*7C
$GLGSV,2,1,8,66,47,209,52,67,50,299,53,68,7,336,,75,12,60,29*52
$GLGSV,2,2,8,76,54,26,49,77,45,282,47,85,20,43,28,86,21,99,47*62
$GPGSA,A,3,10,12,13,15,18,19,24,25,,,,,1.7,0.9,1.5*3D
$GLGSA,A,3,66,67,76,77,,,,,,,,,1.7,0.9,1.5*25
$PNVGBLS,083347.40,0.641,-1.477,0.030,1.610,293.45,1.08,R*0F
$PNVGBSS,2442,0,2442,7868.263,0.4*63
$PNVGIMU,083347.40,-28.67,-167.84,210.52,3.238,-5.045,0.785*79
$GPRMC,083347.60,A,4236.8314919,N,00533.6920074,W,8.95,231.85,030617,0.0,E,R*34
$GPGGA,083347.60,4236.8314919,N,00533.6920074,W,4,12,0.9,843.050,M,55.740,M,0.6,0028*50
$GPGSV,5,1,18,10,26,295,48,12,64,214,51,13,26,136,45,15,60,164,50*76
$GPGSV,5,2,18,17,25,53,30,18,29,267,48,19,32,78,43,20,7,197,31*47
$GPGSV,5,3,18,24,74,342,51,25,21,224,46,32,7,315,,33,40,194,43*4E
$GPGSV,5,4,18,36,29,131,,37,34,142,,38,40,195,,39,7,104,*42
$GPGSV,5,5,18,40,13,110,,49,40,164,*7C
$GLGSV,2,1,8,66,47,209,52,67,50,299,53,68,7,336,,75,12,60,29*52
$GLGSV,2,2,8,76,54,26,49,77,45,282,47,85,20,43,28,86,21,99,47*62
$GPGSA,A,3,10,12,13,15,18,19,24,25,,,,,1.7,0.9,1.5*3D
$GLGSA,A,3,66,67,76,77,,,,,,,,,1.7,0.9,1.5*25
$PNVGBLS,083347.60,0.833,-1.374,0.021,1.607,301.23,0.73,R*03
$PNVGBSS,2442,0,2442,7867.400,0.6*6D
$PNVGIMU,083347.60,-29.49,-168.84,217.43,4.199,-4.356,1.794*70
$GPRMC,083347.80,A,4236.8312067,N,00533.6925630,W,9.04,238.86,030617,0.0,E,R*3C
$GPGGA,083347.80,4236.8312067,N,00533.6925630,W,4,12,0.9,843.034,M,55.740,M,0.8,0028*57
$GPGSV,5,1,18,10,26,295,48,12,64,214,51,13,26,136,45,15,60,164,50*76
$GPGSV,5,2,18,17,25,53,30,18,29,267,48,19,32,78,43,20,7,197,31*47
$GPGSV,5,3,18,24,74,342,51,25,21,224,46,32,7,315,,33,40,194,43*4E
$GPGSV,5,4,18,36,29,131,,37,34,142,,38,40,195,,39,7,104,*42
$GPGSV,5,5,18,40,13,110,,49,40,164,*7C
$GLGSV,2,1,8,66,47,209,52,67,50,299,53,68,7,336,,75,12,60,29*52
$GLGSV,2,2,8,76,54,26,49,77,45,282,47,85,20,43,28,86,21,99,47*62
$GPGSA,A,3,10,12,13,15,18,19,24,25,,,,,1.7,0.9,1.5*3D
$GLGSA,A,3,66,67,76,77,,,,,,,,,1.7,0.9,1.5*25
$PNVGBLS,083347.80,1.015,-1.251,0.042,1.611,309.05,1.51,R*09
$PNVGBSS,2442,0,2442,7866.502,0.8*61
